,Address,Zip Code,Latitude,Longitude,Rating,User Rating Count
0,"1805 Opelika Rd, Auburn, AL 36830, United States",36830,32.626716,-85.443242,4.1,798
1,"3525 Roosevelt Blvd, Birmingham, AL 35235, United States",35235,33.605687,-86.635594,4,1281
2,"2027 Beltline Rd SW, Decatur, AL 35601, United States",35601,34.5778,-87.019933,4.1,789
3,"3116 Montgomery Hwy, Dothan, AL 36303, United States",36303,31.252109,-85.427155,4.1,1026
4,"243 Cox Creek Pkwy, Florence, AL 35630, United States",35630,34.834153,-87.630025,4.4,733
5,"1725 Rainbow Dr, Gadsden, AL 35901, United States",35901,33.980628,-86.007564,4.3,1307
6,"1818 University Dr NW, Huntsville, AL 35801, United States",35801,34.741258,-86.599288,4.1,1747
7,"3941 Airport Blvd, Mobile, AL 36608, United States",36608,30.675613,-88.146068,4,1024
8,"300 Eastdale Cir, Montgomery, AL 36117, United States",36117,32.38259,-86.207348,3.8,1154
9,"515 Quintard Drive, Oxford, AL 36203, United States",36203,33.616783,-85.827221,4.2,828
10,"2620 McFarland Blvd E, Tuscaloosa, AL 35405, United States",35405,33.185073,-87.526797,4,633
11,"1030 Montgomery Hwy, Vestavia Hills, AL 35216, United States",35216,33.43865,-86.789728,3.7,1420
12,"7240 W Ray Rd, Chandler, AZ 85226, United States",85226,33.320471,-111.967792,4.3,1821
13,"6149 E Southern Ave, Superstition Springs Mall Cir East, Mesa, AZ 85206, United States",85206,33.39347,-111.698459,4.3,1988
14,"1403 S Alma School Rd, Fiesta Mall, Mesa, AZ 85210, United States",85210,33.387793,-111.856813,4.2,1848
15,"2500 S Beulah Blvd, Flagstaff, AZ 86001, United States",86001,35.176703,-111.662515,4.3,865
16,"3845 S Gilbert Rd, Gilbert, AZ 85297, United States",85297,33.280351,-111.789189,4.2,1068
17,"15311 W McDowell Rd, Goodyear, AZ 85395, United States",85395,33.464166,-112.388483,4.1,1238
21,"11695 N Oracle Rd, Oro Valley, AZ 85737, United States",85737,32.418604,-110.938204,4.4,505
22,"7921 W Bell Rd, Peoria, AZ 85382, United States",85382,33.637768,-112.229603,4.2,1722
23,"10220 N 28th Dr, Phoenix, AZ 85051, United States",85051,33.579057,-112.122169,4.2,1519
24,"2810 N 75th Ave, Phoenix, AZ 85035, United States",85035,33.478782,-112.221279,4.2,1569
25,"4802 E Cactus Rd, Scottsdale, AZ 85254, United States",85254,33.598226,-111.977568,4.1,1073
30,"13709 W Bell Rd, Surprise, AZ 85374, United States",85374,33.638333,-112.350904,4.3,932
32,"Phoenix, AZ 85042, United States",85042,33.3911169,-111.9800592,0,0
34,"1821 E State Rte 69, Prescott, AZ 86301, United States",86301,34.549467,-112.435017,4.4,667
37,"5061 N Oracle Rd, Tucson, AZ 85704, United States",85704,32.297953,-110.979067,4.3,1185
38,"5315 S Calle Santa Cruz, Tucson, AZ 85706, United States",85706,32.155301,-110.987285,4.3,1170
39,"5870 E Broadway Blvd Suite E-5, Tucson, AZ 85711, United States",85711,32.221076,-110.867991,4.2,1462
41,"1521 S, Yuma Palms Pkwy, Yuma, AZ 85365, United States",85365,32.699676,-114.601838,4.1,659
42,"3885 N Shiloh Dr, Fayetteville, AR 72703, United States",72703,36.122318,-94.145804,4.3,791
43,"7401 Rogers Ave, Fort Smith, AR 72903, United States",72903,35.353029,-94.350361,4.2,1049
44,"4500 Central Ave, Hot Springs, AR 71913, United States",71913,34.451256,-93.078929,4.4,969
45,"2642 Red Wolf Blvd, Jonesboro, AR 72401, United States",72401,35.810915,-90.668653,4.3,961
46,"8407 W Markham St, Little Rock, AR 72205, United States",72205,34.751995,-92.367239,4.1,1178
47,"3707 McCain Blvd, North Little Rock, AR 72116, United States",72116,34.792937,-92.230257,4.2,1359
49,"The Pines Mall, 3000 Pines Mall Dr, Pine Bluff, AR 71601, United States",71601,34.20846,-91.970558,4,530
50,"1710 S 46th St, Rogers, AR 72758, United States",72758,36.316262,-94.183881,4,965
51,"8180 Rosedale Hwy, Bakersfield, CA 93312, United States",93312,35.383861,-119.093014,4.2,905
52,"250 Brea Mall Way, Brea, CA 92821, United States",92821,33.915278,-117.883224,4.3,813
53,"22800 Vanowen St Ave, Canoga Park, CA 91307, United States",91307,34.193374,-118.62378,4.2,914
54,"2010 Business Ln, Chico, CA 95928, United States",95928,39.726287,-121.806513,4.1,870
55,"598 H St, Chula Vista, CA 91910, United States",91910,32.630735,-117.089108,4.2,848
56,"6231 Sunrise Blvd, Citrus Heights, CA 95610, United States",95610,38.679483,-121.272219,4.1,1826
57,"17601 East, Castleton St, City of Industry, CA 91748, United States",91748,33.994442,-117.919629,4.2,822
58,"1525 Travis Blvd, Fairfield, CA 94533, United States",94533,38.258468,-122.057722,4.2,1191
59,"39401 Fremont Blvd, Fremont, CA 94538, United States",94538,37.544978,-121.98254,4,1286
60,"1460 E Shaw Ave, Fresno, CA 93710, United States",93710,36.808919,-119.761948,4.3,1803
61,"12892 Harbor Blvd, Garden Grove, CA 92840, United States",92840,33.77555,-117.917508,4.3,1469
62,"3400 W Century Blvd, Inglewood, CA 90303, United States",90303,33.945231,-118.331305,4,2589
63,"8703 Murray Dr, La Mesa, CA 91942, United States",91942,32.775721,-117.010834,4,947
64,"4333 Candlewood St, Lakewood, CA 90712, United States",90712,33.854124,-118.141097,4.2,1646
65,"503 E Calaveras Blvd, Milpitas, CA 95035, United States",95035,37.433246,-121.896325,3.9,1025
66,"3000 Sisk Rd, Modesto, CA 95350, United States",95350,37.682462,-121.049231,4.1,1836
67,"928 W Huntington Dr, Monrovia, CA 91016, United States",91016,34.139736,-118.018931,4.2,1264
68,"9345 Monte Vista Ave, Montclair, CA 91763, United States",91763,34.084116,-117.697225,4.2,955
69,"El Camino Real, 2471 Vista Way, Oceanside, CA 92054, United States",92054,33.181665,-117.334428,4,664
70,"4413 E, Mills Cir, Ontario, CA 91764, United States",91764,34.076976,-117.556687,4.2,1805
71,"1740 Ventura Blvd, Oxnard, CA 93036, United States",93036,34.224549,-119.154705,4.1,794
72,"72291 CA-111, Palm Desert, CA 92260, United States",92260,33.728929,-116.40376,4.1,954
73,"1041 W Avenue P, Palmdale, CA 93551, United States",93551,34.605124,-118.148905,4.1,1211
74,"4095 Century Blvd, Pittsburg, CA 94565, United States",94565,38.007622,-121.843883,4.1,821
75,"1345 Dana Dr, Redding, CA 96003, United States",96003,40.585285,-122.346915,4.3,888
76,"3700 Park Sierra Dr, Riverside, CA 92505, United States",92505,33.903726,-117.471537,4.1,1618
77,"6440 Redwood Dr, Rohnert Park, CA 94928, United States",94928,38.347423,-122.714901,4.1,875
78,"1400 Howe Ave, Sacramento, CA 95825, United States",95825,38.591155,-121.414862,4,2188
79,"1720 N Main St, Salinas, CA 93906, United States",93906,36.716227,-121.654473,4.2,617
80,"195 E Hospitality Ln, San Bernardino, CA 92408, United States",92408,34.065644,-117.283806,4.2,1736
81,"1210 El Camino Real, San Bruno, CA 94066, United States",94066,37.638774,-122.421781,4.1,1043
82,"8330 Mira Mesa Blvd, San Diego, CA 92126, United States",92126,32.91313,-117.144782,4.1,591
83,"3780 Sports Arena Blvd, San Diego, CA 92110, United States",92110,32.754811,-117.21668,4.2,1174
86,"2040 Aborn Rd, San Jose, CA 95121, United States",95121,37.310955,-121.807735,4.1,1036
87,"5343 Almaden Expy, San Jose, CA 95118, United States",95118,37.252343,-121.87622,3.9,862
90,"1525 S Bradley Rd, Santa Maria, CA 93454, United States",93454,34.93319,-120.418546,4.2,808
91,"2283 W March Ln, Stockton, CA 95207, United States",95207,37.98622,-121.334376,4.1,1478
92,"41649 Margarita Rd, Temecula, CA 92591, United States",92591,33.520215,-117.1526,4.2,1234
93,"21233 Hawthorne Blvd, Torrance, CA 90503, United States",90503,33.836236,-118.356459,4.2,1199
94,"27524 The Old Rd, Valencia, CA 91355, United States",91355,34.421369,-118.583268,4.2,1098
95,"1180 Admiral Callaghan Ln, Vallejo, CA 94591, United States",94591,38.13521,-122.215037,4,1245
96,"12180 Amargosa Rd, Victorville, CA 92392, United States",92392,34.472065,-117.346169,4.4,1395
97,"1545 S Mooney Blvd, Visalia, CA 93277, United States",93277,36.316696,-119.314574,4.3,1235
98,"6139 S Southlands Pkwy, Aurora, CO 80016, United States",80016,39.604723,-104.711491,3.9,583
99,"10854 E Alameda Ave, Aurora, CO 80012, United States",80012,39.710633,-104.86201,4.1,1533
100,"9067 East, Westview Rd, Lone Tree, CO 80124, United States",80124,39.565523,-104.883862,4,966
101,"8268 E, Northfield Blvd, Denver, CO 80238, United States",80238,39.779487,-104.893053,4,1293
102,"4925 N Academy Blvd, Colorado Springs, CO 80918, United States",80918,38.902828,-104.769699,4.2,1410
103,"3510 New Center Point, Colorado Springs, CO 80922, United States",80922,38.88231,-104.719069,4.2,1344
105,"3301 S College Ave, Fort Collins, CO 80525, United States",80525,40.542023,-105.077784,4.1,1055
106,"575 24 1/2 Rd, Grand Junction, CO 81505, United States",81505,39.088358,-108.599459,4.2,865
107,"2885 23rd Ave, Greeley, CO 80631, United States",80631,40.391144,-104.71646,4,1020
108,"810 S Wadsworth Blvd, Lakewood, CO 80226, United States",80226,39.703416,-105.081023,4.1,1223
109,"5656 S Wadsworth Blvd, Littleton, CO 80123, United States",80123,39.613577,-105.090369,4.1,683
111,"2177 Ken Pratt Blvd, Longmont, CO 80501, United States",80501,40.142411,-105.129105,4.1,906
112,"1350 W 104th Ave, Northglenn, CO 80234, United States",80234,39.884607,-105.003099,4.1,1760
113,"3306 N Elizabeth St, Pueblo, CO 81008, United States",81008,38.304332,-104.614067,4.1,1448
114,"4455 Wadsworth Blvd, Wheat Ridge, CO 80033, United States",80033,39.777651,-105.081942,4.1,1212
115,"4485 Main St, Bridgeport, CT 06606, United States",06606,41.220451,-73.217502,4.1,789
116,"34 Backus Ave, Danbury, CT 06810, United States",06810,41.375003,-73.486089,4.1,732
117,"320 Universal Dr N, North Haven, CT 06473, United States",06473,41.353958,-72.872727,4.1,1009
118,"1324 Silas Deane Hwy, Wethersfield, CT 06109, United States",06109,41.684579,-72.654215,4.2,2572
119,"271 N Dupont Hwy, Dover, DE 19901, United States",19901,39.170983,-75.518432,3.9,1164
120,"1249 New Churchman's Rd, Newark, DE 19713, United States",19713,39.690131,-75.66123,4.1,1115
121,"309 Rocky Run Pkwy, Talleyville, DE 19803, United States",19803,39.819585,-75.549315,4.1,1301
123,"2314 N Salisbury Blvd, Salisbury, MD 21801, United States",21801,38.39858,-75.569937,4,944
125,"340 W State Rd 436, Altamonte Springs, FL 32714, United States",32714,28.661328,-81.395474,4.1,1590
126,"700 N Congress Ave, Boynton Beach, FL 33426, United States",33426,26.533684,-80.090038,4,813
127,"5711 14th St W, Bradenton, FL 34207, United States",34207,27.440029,-82.575057,4.1,1447
128,"2604 W Brandon Blvd, Brandon, FL 33511, United States",33511,27.940752,-82.325452,4,2386
129,"26320 U.S. 19th North, Clearwater, FL 33761, United States",33761,28.0118,-82.734786,4.2,1404
130,"2475 S Hwy 27, Clermont, FL 34711, United States",34711,28.537092,-81.736731,4.2,820
131,"2000 N University Dr, Coral Springs, FL 33071, United States",33071,26.256021,-80.252425,4,1728
132,"2625 W International Speedway Blvd, Daytona Beach, FL 32114, United States",32114,29.175724,-81.081808,4.1,1437
133,"3162 S Atlantic Ave, Daytona Beach Shores, FL 32118, United States",32118,29.160774,-80.97506,4.3,1101
135,"Doral, FL 33126, United States",33126,25.7897571,-80.3357561,5,2
136,"1750 W 49th St, Hialeah, FL 33012, United States",33012,25.866205,-80.318342,4.2,1396
137,"11550 SW 88th St, Miami, FL 33176, United States",33176,25.685951,-80.383432,4.1,1295
138,"8705 SW 136th St, Miami, FL 33176, United States",33176,25.645168,-80.334318,4,665
139,"13300 Biscayne Blvd, North Miami, FL 33181, United States",33181,25.898051,-80.161592,4.1,2285
140,"5950 N Federal Hwy, Fort Lauderdale, FL 33308, United States",33308,26.201727,-80.108804,4.1,1771
141,"3801 Cleveland Ave, Fort Myers, FL 33901, United States",33901,26.606973,-81.87152,4.1,1752
142,"6401 Darter Ct, Fort Pierce, FL 34945, United States",34945,27.414263,-80.390547,4,1059
143,"326 Miracle Strip Pkwy SW, Fort Walton Beach, FL 32548, United States",32548,30.405597,-86.635027,4.2,1058
144,"6910 W Newberry Rd, Gainesville, FL 32605, United States",32605,29.660594,-82.416743,4.1,1485
146,"2900 Oakwood Blvd, Hollywood, FL 33020, United States",33020,26.03774,-80.162828,3.9,1551
147,"2301 NE 8th St, Homestead, FL 33033, United States",33033,25.478046,-80.443674,3.9,804
148,"13090 City Station Dr, Jacksonville, FL 32218, United States",32218,30.475358,-81.643905,3.8,1204
149,"32 Blanding Blvd, Orange Park, FL 32073, United States",32073,30.187878,-81.740033,4,1766
150,"416 Commerce Center Dr, Jacksonville, FL 32225, United States",32225,30.329711,-81.550968,3.9,1281
151,"8720 Baymeadows Rd, Jacksonville, FL 32256, United States",32256,30.220389,-81.577526,3.9,1141
152,"3544 NW Federal Hwy, Jensen Beach, FL 34957, United States",34957,27.244533,-80.272524,4,1138
153,"4010 W Vine St, Kissimmee, FL 34741, United States",34741,28.303974,-81.443103,4.2,1755
154,"7780 W Irlo Bronson Memorial Hwy, Kissimmee, FL 34747, United States",34747,28.339274,-81.59718,4.2,1629
155,"5690 W Irlo Bronson Memorial Hwy, Kissimmee, FL 34746, United States",34746,28.332183,-81.513215,4.2,1684
156,"2847 W US Hwy 90, Lake City, FL 32055, United States",32055,30.180367,-82.678973,4.1,755
157,"6638 Lake Worth Rd, Lake Worth, FL 33467, United States",33467,26.617234,-80.149276,3.9,1179
158,"3706 North Dr #98, Lakeland, FL 33809, United States",33809,28.089436,-81.974407,4,2211
159,"10500 E Ulmerton Rd, Largo, FL 33771, United States",33771,27.894097,-82.782614,4,1167
160,"10010 US-441, Leesburg, FL 34788, United States",34788,28.823765,-81.790695,4.1,1046
161,"2355 W New Haven Ave, Melbourne, FL 32904, United States",32904,28.078257,-80.660904,4.1,1674
162,"215 E Merritt Island Causeway, Merritt Island, FL 32952, United States",32952,28.356649,-80.695842,4.3,1245
166,"1695 NW 87th Ave, Doral, FL 33172, United States",33172,25.789372,-80.33639,4.4,2411
168,"2355 Tamiami Trail N, Naples, FL 34103, United States",34103,26.176355,-81.800236,3.9,872
170,"3393 SW College Rd, Ocala, FL 34474, United States",34474,29.15697,-82.178883,4.1,1749
172,"3552 E Colonial Dr, Orlando, FL 32803, United States",32803,28.553022,-81.339985,4.3,1439
173,"7373 W Colonial Dr, Orlando, FL 32818, United States",32818,28.552549,-81.480343,4,1217
174,"5936 International Dr, Orlando, FL 32819, United States",32819,28.461768,-81.46156,4.3,2116
175,"9892 International Dr, Orlando, FL 32819, United States",32819,28.424539,-81.461657,4.2,2069
176,"8003 Golden Sky Ln, Orlando, FL 32809, United States",32809,28.45008,-81.393477,4.2,1287
177,"12557 FL-535, Orlando, FL 32836, United States",32836,28.381024,-81.502994,4.3,1250
178,"450 S Orange Ave, Orlando, FL 32801, United States",32801,28.537175,-81.3791295,2.9,34
180,"617 N Alafaya Trail, Orlando, FL 32828, United States",32828,28.554431,-81.205673,4.1,1145
184,"910 E 23rd St, Panama City, FL 32405, United States",32405,30.188907,-85.64558,4.2,966
185,"296 N University Dr, Pembroke Pines, FL 33024, United States",33024,26.011328,-80.248692,3.8,1479
186,"Cordova Mall, 5110 N 9th Ave, Pensacola, FL 32504, United States",32504,30.475802,-87.210379,4,1444
187,"803 S University Dr, Plantation, FL 33324, United States",33324,26.113155,-80.251331,3.8,1500
188,"1331 Tamiami Trail, Port Charlotte, FL 33948, United States",33948,27.011956,-82.146564,4.1,1222
189,"8909 US-19, Port Richey, FL 34668, United States",34668,28.286799,-82.714064,4,1472
190,"100 FL-312 W, St. Augustine, FL 32086, United States",32086,29.867397,-81.323833,4,1083
191,"6151 34th St N, St. Petersburg, FL 33714, United States",33714,27.82785,-82.67927,3.9,1826
192,"20 Towne Center Cir, Sanford, FL 32771, United States",32771,28.807269,-81.335509,4,1111
193,"6747 S Tamiami Trail, Sarasota, FL 34231, United States",34231,27.257373,-82.519164,4.2,852
194,"721 US-27, Sebring, FL 33870, United States",33870,27.489831,-81.484185,4.2,832
195,"2328 Commercial Way, Spring Hill, FL 34606, United States",34606,28.46632,-82.621408,4.2,1583
196,"2583 N Monroe St, Tallahassee, FL 32303, United States",32303,30.47634,-84.296401,3.9,1269
197,"17021 Palm Pointe Dr, Tampa, FL 33647, United States",33647,28.117482,-82.379968,3.9,1291
198,"2625 E Busch Blvd, Tampa, FL 33612, United States",33612,28.032213,-82.429262,3.9,1769
199,"11601 N Dale Mabry Hwy, Tampa, FL 33618, United States",33618,28.054556,-82.503337,4.1,1958
202,"3830 Wedgewood Ln, The Villages, FL 32162, United States",32162,28.927855,-82.024156,4,969
203,"2201 Palm Beach Lakes Blvd, West Palm Beach, FL 33409, United States",33409,26.711689,-80.096749,3.8,1690
204,"230 Cypress Gardens Blvd, Winter Haven, FL 33880, United States",33880,28.003608,-81.725051,3.9,1738
205,"2403 N Slappey Blvd, Albany, GA 31701, United States",31701,31.60955,-84.176177,4,797
206,"1956 W Broad St, Athens, GA 30606, United States",30606,33.95179,-83.403083,3.9,1250
207,"3360 Camp Creek Pkwy, Atlanta, GA 30344, United States",30344,33.656963,-84.499834,4.1,2138
208,"440 Walton Way, Augusta, GA 30901, United States",30901,33.465216,-81.96136,4.1,1252
209,"2847 Washington Rd, Augusta, GA 30909, United States",30909,33.511442,-82.035651,3.9,1493
210,"1805 East-West Connector S.W, Austell, GA 30106, United States",30106,33.853639,-84.605487,3.9,1419
211,"3230 Buford Dr, Buford, GA 30519, United States",30519,34.064976,-83.990079,3.8,1492
212,"1405 Riverstone Pkwy, Canton, GA 30114, United States",30114,34.249995,-84.477069,4.2,755
213,"375 Cherokee Pl, Cartersville, GA 30121, United States",30121,34.172687,-84.782001,4.1,259
214,"1425 13th St, Columbus, GA 31901, United States",31901,32.471507,-84.971129,4,1050
215,"2679 Adams Farm Dr, Columbus, GA 31909, United States",31909,32.544372,-84.948409,4,994
216,"1560 Dogwood Dr SE, Conyers, GA 30013, United States",30013,33.647864,-83.994391,3.8,1726
217,"901 W Bridge Rd, Dalton, GA 30720, United States",30720,34.760018,-85.003411,4.4,1191
218,"2522 Candler Rd, Decatur, GA 30032, United States",30032,33.716444,-84.273663,3.8,2064
219,"3100 Bill Arp Rd, Douglasville, GA 30135, United States",30135,33.720246,-84.763662,4.1,1380
220,"2105 Veterans Blvd, Dublin, GA 31021, United States",31021,32.542218,-82.954462,4.1,730
221,"2055 Pleasant Hill Rd, Duluth, GA 30096, United States",30096,33.955604,-84.13297,4.1,1586
222,"1707 Browns Bridge Rd, Gainesville, GA 30501, United States",30501,34.28448,-83.844709,4.2,1094
223,"6550 Tara Blvd, Jonesboro, GA 30236, United States",30236,33.575668,-84.371421,3.8,2043
224,"2626 George Busbee Pkwy NW, Kennesaw, GA 30144, United States",30144,34.014922,-84.56672,4.3,1331
225,"2077 Riverside Dr, Macon, GA 31204, United States",31204,32.857568,-83.644893,3.6,1382
226,"1846 Jonesboro Rd, McDonough, GA 30253, United States",30253,33.464868,-84.216527,3.8,1509
227,"990 Bullsboro Dr, Newnan, GA 30265, United States",30265,33.39741,-84.745554,4.1,1148
228,"1359 Sam Nunn Blvd, Perry, GA 31069, United States",31069,32.466921,-83.739737,4,867
229,"700 Shorter Ave NW, Rome, GA 30165, United States",30165,34.266251,-85.201469,4.3,899
230,"1050 Holcomb Bridge Rd, Roswell, GA 30076, United States",30076,34.024504,-84.329538,3.6,1177
231,"11 W E Montgomery Cross Rd, Savannah, GA 31406, United States",31406,31.998281,-81.123229,3.8,1755
232,"2579 Cobb Pkwy SE, Smyrna, GA 30080, United States",30080,33.889744,-84.474448,4.1,1382
233,"4001 GA-78 W, Snellville, GA 30039, United States",30039,33.838521,-84.068975,3.9,1676
234,"101 S Virginia Ave, Tifton, GA 31794, United States",31794,31.456897,-83.526753,4.2,637
235,"3937 Lavista Rd, Tucker, GA 30084, United States",30084,33.844738,-84.255662,4.1,1554
236,"1179 N St Augustine Rd, Valdosta, GA 31601, United States",31601,30.840423,-83.320841,4.1,956
237,"1765 Ala Moana Blvd, Honolulu, HI 96815, United States",96815,21.285613,-157.839143,3.9,1636
238,"550 N Milwaukee St, Boise, ID 83704, United States",83704,43.609556,-116.284327,4.2,1448
239,"212 E Neider Ave, Coeur d'Alene, ID 83815, United States",83815,47.706925,-116.790708,4.3,1241
240,"2115 Thain Grd, Lewiston, ID 83501, United States",83501,46.399963,-117.000516,4.1,635
241,"4105 N Yellowstone Hwy, Pocatello, ID 83202, United States",83202,42.907745,-112.466871,4.3,989
242,"170 E Beltline Pkwy, Alton, IL 62002, United States",62002,38.921077,-90.17331,4.3,1000
243,"1036 N, Illinois Rte 59, Aurora, IL 60504, United States",60504,41.77415,-88.206255,4.2,933
244,"391 W Army Trail Rd, Bloomingdale, IL 60108, United States",60108,41.939844,-88.115682,4.2,845
245,"714 S Eldorado Rd, Bloomington, IL 61704, United States",61704,40.471774,-88.951988,4.4,681
246,"209 S Weber Rd, Bolingbrook, IL 60490, United States",60490,41.69322,-88.123273,3.9,689
247,"1604 N State Rte 50, Bourbonnais, IL 60914, United States",60914,41.174237,-87.850754,4.1,585
248,"1901 N Prospect Ave, Champaign, IL 61822, United States",61822,40.138433,-88.25849,4.3,1145
249,"5201 S Pulaski Rd, Chicago, IL 60632, United States",60632,41.798412,-87.722733,3.9,2034
250,"3217 N Vermilion St, Danville, IL 61832, United States",61832,40.176417,-87.629592,4.2,573
251,"3001 Finley Rd, Downers Grove, IL 60515, United States",60515,41.833097,-88.024404,4.1,1335
252,"110 Ludwig Dr, Fairview Heights, IL 62208, United States",62208,38.600549,-89.992023,4.2,1807
253,"997 S, State Route 51, Forsyth, IL 62535, United States",62535,39.920528,-88.956154,3.7,525
254,"902 Commons Dr, Geneva, IL 60134, United States",60134,41.896544,-88.341252,4.2,532
255,"6230 Grand Ave, Gurnee, IL 60031, United States",60031,42.384332,-87.956429,4,930
256,"2950 Plainfield Rd, Joliet, IL 60435, United States",60435,41.578095,-88.160616,4.2,1210
257,"3301 W Touhy Ave, Lincolnwood, IL 60712, United States",60712,42.011558,-87.712328,4.3,1157
258,"2900 W Deyoung St, Marion, IL 62959, United States",62959,37.7455,-88.97522,4.4,1237
259,"3915 W 211th St, Matteson, IL 60443, United States",60443,41.505712,-87.711913,3.9,1405
260,"4401 N Cumberland Ave, Norridge, IL 60706, United States",60706,41.959992,-87.836204,4.1,1995
261,"9500 SW Hwy, Oak Lawn, IL 60453, United States",60453,41.719066,-87.769708,3.9,2320
262,"14750 South La Grange Road, Orland Park, IL 60462, United States",60462,41.621599,-87.854226,4.1,1361
263,"4625 N Sterling Ave, Peoria, IL 61615, United States",61615,40.74429,-89.632241,4.3,1403
264,"4381 Venture Dr, Peru, IL 61354, United States",61354,41.362981,-89.126223,4.4,580
265,"5827 E State St, Rockford, IL 61108, United States",61108,42.26582,-89.00285,4.3,1600
266,"800 E Golf Rd, Schaumburg, IL 60173, United States",60173,42.050567,-88.059327,4.3,1448
267,"2696 S Dirksen Pkwy, Springfield, IL 62703, United States",62703,39.766937,-89.606733,4.1,1224
268,"701 Spring Hill Ring Rd, West Dundee, IL 60118, United States",60118,42.102131,-88.289741,4.2,938
269,"5806 S Scatterfield Rd, Anderson, IN 46013, United States",46013,40.05679,-85.652138,4.3,937
270,"10189 E US Hwy 36, Avon, IN 46123, United States",46123,39.763226,-86.342695,4.2,1419
271,"2617 E 3rd St, Bloomington, IN 47401, United States",47401,39.164615,-86.499189,4.3,840
272,"951 E Lewis and Clark Pkwy Suite 3004, Clarksville, IN 47129, United States",47129,38.317369,-85.761902,4.2,1192
273,"2000 25th St, Columbus, IN 47201, United States",47201,39.223473,-85.902534,4.2,1016
274,"3009 Brittany Ct, Elkhart, IN 46514, United States",46514,41.729179,-85.972619,4,1066
275,"3930 N Main St, Mishawaka, IN 46545, United States",46545,41.697551,-86.181813,4.2,1379
276,"4605 Bellemeade Ave, Evansville, IN 47714, United States",47714,37.967392,-87.494471,4.3,1689
277,"4825 Coldwater Rd, Fort Wayne, IN 46825, United States",46825,41.12352,-85.136316,4.2,2129
278,"690 East Thompson Rd, Indianapolis, IN 46227, United States",46227,39.693837,-86.145882,4.1,1902
279,"1752 Shadeland Ave, Indianapolis, IN 46219, United States",46219,39.791797,-86.046221,3.9,1517
280,"5090 W 38th St, Indianapolis, IN 46254, United States",46254,39.824326,-86.24672,3.8,860
281,"6410 E 82nd St, Indianapolis, IN 46250, United States",46250,39.905847,-86.057396,3.9,1165
283,"1900 S Reed Rd, Kokomo, IN 46902, United States",46902,40.464087,-86.107287,4.3,692
284,"120 S Creasy Ln, Lafayette, IN 47905, United States",47905,40.416993,-86.840063,4.3,891
285,"1450 E 82nd Ave, Merrillville, IN 46410, United States",46410,41.470264,-87.318936,4.3,1609
286,"4353 Franklin St, Michigan City, IN 46360, United States",46360,41.675398,-86.894674,4.1,1107
289,"223 W McGalliard Rd, Muncie, IN 47303, United States",47303,40.218594,-85.388663,4.3,931
291,"9311 Calumet Ave, Munster, IN 46321, United States",46321,41.544267,-87.508415,4.1,2206
292,"5400 National Rd E, Richmond, IN 47374, United States",47374,39.8329,-84.828361,4.2,921
293,"3407 S US Hwy 41, Terre Haute, IN 47802, United States",47802,39.426572,-87.417133,4.3,1349
294,"1100 Buckeye Ave, Ames, IA 50010, United States",50010,42.013153,-93.610873,4.3,805
295,"163 Collins Rd NE, Cedar Rapids, IA 52402, United States",52402,42.027353,-91.628801,4.4,1073
296,"2671 2nd St, Coralville, IA 52241, United States",52241,41.68874,-91.607286,4.4,792
297,"3040 Dial Dr, Council Bluffs, IA 51501, United States",51501,41.229772,-95.850252,4.2,892
298,"3420 E Kimberly Rd, Davenport, IA 52807, United States",52807,41.551205,-90.523014,4.2,1504
299,"4290 Sergeant Rd, Sioux City, IA 51106, United States",51106,42.448961,-96.353646,4.4,718
300,"941 E San Marnan Dr, Waterloo, IA 50702, United States",50702,42.458156,-92.337421,4.2,840
301,"3838 Westown Pkwy, West Des Moines, IA 50266, United States",50266,41.595061,-93.756325,4.2,1813
302,"10700 Parallel Pkwy, Kansas City, KS 66109, United States",66109,39.128866,-94.827457,3.9,1128
303,"9475 Metcalf Ave, Overland Park, KS 66212, United States",66212,38.95718,-94.667084,4,1536
304,"450 NW Barry Rd, Kansas City, MO 64155, United States",64155,39.246737,-94.585282,4.1,1631
305,"14904 W 119th St, Olathe, KS 66062, United States",66062,38.913213,-94.758918,4.2,1164
306,"4328 S Noland Rd, Independence, MO 64055, United States",64055,39.041411,-94.415848,4.1,2060
309,"2925 S 9th St, Salina, KS 67401, United States",67401,38.785176,-97.612088,4.2,722
310,"2011 SW Wanamaker Rd, Topeka, KS 66604, United States",66604,39.03036,-95.76274,4.1,1037
311,"333 S. Towne East Mall Drive, Wichita, KS 67207, United States",67207,37.682191,-97.2521,4.3,1345
312,"555 S West St, Wichita, KS 67213, United States",67213,37.675374,-97.389982,4.2,1685
313,"Greenwood Mall, 2525 Scottsville Rd, Bowling Green, KY 42104, United States",42104,36.951351,-86.426222,4.3,839
314,"2020 N Dixie Hwy, Elizabethtown, KY 42701, United States",42701,37.739077,-85.890216,4.2,953
315,"7921 Dream St, Florence, KY 41042, United States",41042,38.989244,-84.642155,4.4,1929
316,"2550 Nicholasville Rd, Lexington, KY 40503, United States",40503,37.998541,-84.519721,4.2,1296
317,"1848 Alysheba Way, Lexington, KY 40509, United States",40509,38.01894,-84.418456,4.3,1194
318,"828 Eastern Bypass, Richmond, KY 40475, United States",40475,37.730879,-84.281482,4.3,618
319,"4639 Outer Loop, Louisville, KY 40219, United States",40219,38.138303,-85.677044,4,1131
320,"986 Breckenridge Ln, St Matthews, KY 40207, United States",40207,38.232446,-85.639621,4.2,1781
321,"3410 Frederica St, Owensboro, KY 42301, United States",42301,37.738053,-87.119253,4.4,832
322,"5151 Hinkleville Rd, Paducah, KY 42001, United States",42001,37.075839,-88.691117,4.3,695
325,"6051 Bluebonnet Blvd, Baton Rouge, LA 70836, United States",70836,30.393298,-91.087077,3.9,862
326,"2968 E Texas St, Bossier City, LA 71111, United States",71111,32.528308,-93.703184,4,1091
327,"3020 N Causeway Blvd, Metairie, LA 70002, United States",70002,30.007424,-90.155475,3.7,1135
328,"4601 Pecanland Mall Dr, Monroe, LA 71203, United States",71203,32.496975,-92.063518,4,608
329,"183 Jennifer Rd, Annapolis, MD 21401, United States",21401,38.985102,-76.544509,4.1,877
330,"615 Belair Rd, Bel Air, MD 21014, United States",21014,39.524606,-76.355424,4.2,805
331,"9011 Snowden Square Dr, Columbia, MD 21046, United States",21046,39.183564,-76.819083,4.1,1087
332,"1020 W Patrick St, Frederick, MD 21703, United States",21703,39.41611,-77.439869,4.1,707
333,"15700 Shady Grove Rd, Gaithersburg, MD 20877, United States",20877,39.113476,-77.187258,3.7,1167
334,"1681 Wesel Blvd, Hagerstown, MD 21740, United States",21740,39.630196,-77.762243,4.2,1006
335,"7063 Arundel Mills Blvd, Hanover, MD 21076, United States",21076,39.154239,-76.729652,4.1,1379
336,"8905 Annapolis Rd, Lanham, MD 20706, United States",20706,38.960491,-76.862907,3.7,1506
337,"14368 Baltimore Ave, Laurel, MD 20707, United States",20707,39.085857,-76.861746,3.8,700
338,"8019 Honeygo Blvd, Nottingham, MD 21236, United States",21236,39.371468,-76.468897,4,1766
339,"3 Restaurant Park Dr N, Owings Mills, MD 21117, United States",21117,39.404619,-76.792716,3.8,1325
341,"8533 Georgia Ave, Silver Spring, MD 20910, United States",20910,38.996062,-77.027218,3.8,926
342,"5051 Auth Way, Suitland-Silver Hill, MD 20746, United States",20746,38.826458,-76.920802,3.9,2084
343,"11035 Mall Cir, Waldorf, MD 20603, United States",20603,38.616071,-76.922422,3.8,787
344,"1420 S Main St, Adrian, MI 49221, United States",49221,41.876178,-84.043951,4.3,672
345,"2420 Carpenter Rd, Ann Arbor, MI 48108, United States",48108,42.251393,-83.681286,4.1,1566
346,"2565 Capitol Ave. S.W, Battle Creek, MI 49015, United States",49015,42.264579,-85.198368,4.4,1090
347,"4109 Wilder Rd, Bay City, MI 48706, United States",48706,43.624354,-83.892681,4.3,583
348,"6850 N Telegraph Rd, Dearborn Heights, MI 48127, United States",48127,42.338284,-83.272403,3.8,2018
349,"4417 W Pierson Rd, Flint, MI 48504, United States",48504,43.060098,-83.768845,4,1726
350,"4220 24th Ave, Fort Gratiot Twp, MI 48059, United States",48059,43.032203,-82.455615,4.3,711
351,"3464, Point Circle, Grandville, MI 49418, United States",49418,42.883025,-85.749646,4.2,1382
352,"2400 Shirley Dr, Jackson, MI 49202, United States",49202,42.276859,-84.429837,4.1,1212
353,"3920 28th St SE, Kentwood, MI 49512, United States",49512,42.912111,-85.570781,4.1,1482
354,"3130 E Saginaw St, Lansing, MI 48912, United States",48912,42.740415,-84.507007,4.2,1427
355,"29980 Plymouth Rd, Livonia, MI 48150, United States",48150,42.369571,-83.338167,3.8,1695
356,"101 W Twelve Mile Rd, Madison Heights, MI 48071, United States",48071,42.504343,-83.107404,4,2431
357,"2923 US-41 West, Marquette, MI 49855, United States",49855,46.548801,-87.453411,4.2,620
358,"1553 N Dixie Hwy, Monroe, MI 48162, United States",48162,41.9286,-83.353704,4.2,924
359,"4062 E. Bluegrass Road, Mt Pleasant, MI 48858, United States",48858,43.574944,-84.766174,4.3,708
360,"1681 E Sternberg Rd, Muskegon, MI 49444, United States",49444,43.153519,-86.203861,4.4,873
361,"27760 Novi Rd, Novi, MI 48377, United States",48377,42.49065,-83.475102,4,1389
362,"6535 S Westnedge Ave, Portage, MI 49002, United States",49002,42.221645,-85.588899,4.2,1524
363,"2825 S Rochester Rd, Rochester Hills, MI 48307, United States",48307,42.639207,-83.131247,4.2,850
364,"4141 Bay Rd, Saginaw, MI 48603, United States",48603,43.46739,-83.976246,4,1184
365,"13999 Eureka Rd, Southgate, MI 48195, United States",48195,42.198952,-83.19424,4,1640
366,"13800 Hall Rd, Sterling Heights, MI 48313, United States",48313,42.626157,-82.9898,4.2,1853
367,"2691 N U.S. 31 S, Traverse City, MI 49684, United States",49684,44.727435,-85.646892,4.4,1012
368,"25901 Hoover Rd, Warren, MI 48089, United States",48089,42.484817,-83.006921,3.8,2210
369,"479 Telegraph Rd, Waterford Twp, MI 48328, United States",48328,42.647466,-83.326777,4,1275
370,"5774 N Wayne Rd, Westland, MI 48185, United States",48185,42.325961,-83.388104,4.2,1870
371,"1951 American Blvd W, Bloomington, MN 55431, United States",55431,44.858178,-93.304251,4.1,1346
372,"1301 County Rd 42 W, Burnsville, MN 55306, United States",55306,44.746022,-93.297357,4.2,1506
373,"301 S Lake Ave, Duluth, MN 55802, United States",55802,46.784051,-92.096702,4.2,1152
374,"8900 Golden Valley Rd, Golden Valley, MN 55427, United States",55427,44.985155,-93.393643,4.2,1192
375,"1890 E, Madison Ave, Mankato, MN 56001, United States",56001,44.167332,-93.950173,4.3,1066
376,"12515 Elm Creek Blvd N, Maple Grove, MN 55369, United States",55369,45.093862,-93.439288,4.2,1028
377,"2925 White Bear Ave, Maplewood, MN 55109, United States",55109,45.02868,-93.018755,4.1,1194
378,"8500 State Hwy 47, Minneapolis, MN 55433, United States",55433,45.125029,-93.265501,4.2,1664
379,"8350 3rd St N, Oakdale, MN 55128, United States",55128,44.951094,-92.935296,4.1,924
380,"2330 Prior Ave N, Roseville, MN 55113, United States",55113,45.010981,-93.181642,4.2,1289
387,"2920 W Division St, St Cloud, MN 56301, United States",56301,45.552867,-94.193964,4.3,1102
391,"2675 32nd Ave S, Grand Forks, ND 58201, United States",58201,47.888897,-97.066133,4.4,795
392,"4215 13th Ave S, Fargo, ND 58103, United States",58103,46.862253,-96.852932,4.4,1548
393,"3333 WI-16, La Crosse, WI 54601, United States",54601,43.867077,-91.202895,3.9,1040
396,"3897 Promenade Pkwy, D'Iberville, MS 39540, United States",39540,30.454824,-88.901898,4,510
397,"4670 Hardy St, Hattiesburg, MS 39402, United States",39402,31.323333,-89.360847,4.3,696
398,"6357 Interstate 55 North Frontage Rd, Jackson, MS 39213, United States",39213,32.397565,-90.146726,3.9,966
399,"201 S Frontage Rd, Meridian, MS 39301, United States",39301,32.364216,-88.674691,4.2,638
400,"6535 Airways Blvd, Southaven, MS 38671, United States",38671,34.955891,-89.990671,4.1,1304
401,"895 Barnes Crossing Rd, Tupelo, MS 38804, United States",38804,34.314918,-88.703756,4.1,781
402,"3559 Shepherd of the Hills Expy, Branson, MO 65616, United States",65616,36.652233,-93.288157,4.4,1358
403,"12235 St Charles Rock Rd, Bridgeton, MO 63044, United States",63044,38.752078,-90.426527,3.9,1926
404,"3269 William St, Cape Girardeau, MO 63703, United States",63703,37.302051,-89.57791,4.2,867
405,"17204 Chesterfield Airport Rd, Chesterfield, MO 63005, United States",63005,38.667902,-90.59567,4.2,841
406,"1110 Interstate 70 Dr SW, Columbia, MO 65203, United States",65203,38.96432,-92.354935,0,0
407,"3519 Country Club Dr, Jefferson City, MO 65109, United States",65109,38.583503,-92.250113,4.3,546
408,"2141 S Glenstone Ave, Springfield, MO 65804, United States",65804,37.175169,-93.262973,4.2,2133
409,"9838 Watson Rd, St. Louis, MO 63126, United States",63126,38.556239,-90.390499,4.2,856
410,"1716 Interstate 70 Dr SW, Columbia, MO 65203, United States",65203,38.9655318,-92.364948,4.3,842
413,"3131 N Rangeline Rd, Joplin, MO 64801, United States",64801,37.055462,-94.477757,4.2,1357
415,"670 NW Blue Pkwy, Lee's Summit, MO 64063, United States",64063,38.9265,-94.402165,3.9,1270
416,"2381 Maplewood Commons Dr, Maplewood, MO 63143, United States",63143,38.61784,-90.332907,4,1110
417,"5733 S Lindbergh Blvd, St. Louis, MO 63123, United States",63123,38.522261,-90.349954,4.3,1779
419,"4101 Frederick Ave, St Joseph, MO 64506, United States",64506,39.777445,-94.795003,4.2,844
423,"1831 Sidney St, St. Louis, MO 63104, United States",63104,38.6033472,-90.2154306,4.5,1087
424,"1820 Market St, St. Louis, MO 63103, United States",63103,38.6279862,-90.2080758,3.7,822
426,"736 S Broadway, St. Louis, MO 63102, United States",63102,38.6188501,-90.1924284,4.6,4670
427,"4561 Gravois Ave, St. Louis, MO 63116, United States",63116,38.5843422,-90.2636623,3.9,616
428,"4101 Veterans Memorial Pkwy, St Peters, MO 63376, United States",63376,38.795084,-90.572292,4.2,1776
431,"2250 King Ave W, Billings, MT 59102, United States",59102,45.754741,-108.572218,4.1,1317
432,"3430 W 13th St, Grand Island, NE 68803, United States",68803,40.931981,-98.382787,4.3,607
433,"121 2nd Ave E, Kearney, NE 68847, United States",68847,40.6743,-99.084785,4.4,743
434,"6540 O St, Lincoln, NE 68510, United States",68510,40.813901,-96.631221,4.4,1235
435,"2707 S 140th St, West Omaha, NE 68144, United States",68144,41.233447,-96.133365,4.3,782
436,"330 S 72nd St, Omaha, NE 68114, United States",68114,41.256198,-96.024421,4,1294
440,"570 Marks St, Henderson, NV 89014, United States",89014,36.062443,-115.035987,4.2,1051
441,"2325 E Flamingo Rd, Las Vegas, NV 89119, United States",89119,36.114385,-115.120483,4.4,2280
442,"200 S Decatur Blvd, Las Vegas, NV 89107, United States",89107,36.171729,-115.206493,4.1,2217
443,"1870 W Craig Rd, North Las Vegas, NV 89031, United States",89031,36.2395816,-115.1685566,4.1,498
447,"5015 Kietzke Ln, Reno, NV 89511, United States",89511,39.47628,-119.795469,4.2,1485
448,"1271 US-22, Bridgewater Township, NJ 08807, United States",08807,40.578635,-74.580504,4,600
449,"2100 NJ-38, Cherry Hill, NJ 08002, United States",08002,39.939644,-75.021509,4.1,1221
450,"3003 Route 130 South, Delran, NJ 08075, United States",08075,40.012277,-74.962735,4.2,1085
451,"750 Highway 18, North Dr, East Brunswick, NJ 08816, United States",08816,40.425907,-74.380199,4.1,1184
452,"635 U.S, US-1, Iselin, NJ 08830, United States",08830,40.558693,-74.306286,3.9,1343
453,"3255 Brunswick Pike, Lawrenceville, NJ 08648, United States",08648,40.290608,-74.688289,3.9,1183
454,"303 Route 10, Ledgewood Mall, Roxbury Township, NJ 07852, United States",07852,40.873309,-74.649224,4.2,568
455,"4411 E Black Horse Pike, Mays Landing, NJ 08330, United States",08330,39.451939,-74.644088,4.1,843
456,"2200 NJ-35, Oakhurst, NJ 07755, United States",07755,40.271598,-74.043326,3.9,874
457,"211 NJ-17 S, Paramus, NJ 07652, United States",07652,40.935217,-74.071432,3.9,1245
458,"700 Plaza Dr, Secaucus, NJ 07094, United States",07094,40.786442,-74.046047,4.2,1564
459,"7000 Hadley Rd, South Plainfield, NJ 07080, United States",07080,40.55415,-74.432341,3.8,772
460,"1298 Hooper Ave, Toms River, NJ 08753, United States",08753,39.986935,-74.179244,4.1,1129
461,"2520 US, US-22, Union, NJ 07083, United States",07083,40.689418,-74.302256,3.8,2271
462,"3849 S Delsea Dr, Vineland, NJ 08360, United States",08360,39.432536,-75.039769,4,618
463,"520 US-46, Wayne, NJ 07470, United States",07470,40.894006,-74.241885,4,1515
464,"1500 Almonesson Rd, Woodbury, NJ 08096, United States",08096,39.826139,-75.100451,4,1267
465,"5555 Montgomery Blvd NE, Albuquerque, NM 87109, United States",87109,35.131839,-106.578569,4.3,1310
466,"10520 Coors Bypass NW, Albuquerque, NM 87114, United States",87114,35.208446,-106.657673,4.1,1471
467,"2601 N Prince St, Clovis, NM 88101, United States",88101,34.424645,-103.196103,4.2,563
468,"3451 E Main St, Farmington, NM 87402, United States",87402,36.748917,-108.159859,4.3,1014
469,"575 S Telshor Blvd, Las Cruces, NM 88011, United States",88011,32.314267,-106.742576,4.3,984
470,"2625 N Main St, Roswell, NM 88201, United States",88201,33.426619,-104.522515,4.1,687
471,"4450 Rodeo Rd, Santa Fe, NM 87507, United States",87507,35.637924,-106.015656,4.1,923
472,"4010 Maple Rd, Amherst, NY 14226, United States",14226,42.991256,-78.814201,4,1590
473,"2090 Bartow Ave, The Bronx, NY 10475, United States",10475,40.869059,-73.826987,3.9,1894
474,"455 Gateway Dr, Brooklyn, NY 11239, United States",11239,40.65089,-73.86991,3.8,3529
475,"1000 McKinley Mall, Buffalo, NY 14219, United States",14219,42.788019,-78.808799,4.2,946
476,"211 Old Country Rd #217, Carle Place, NY 11514, United States",11514,40.74403,-73.613392,4.1,2081
477,"170 Wolf Rd, Colonie, NY 12205, United States",12205,42.722455,-73.802478,4.1,1981
478,"801 Sunrise Hwy, Copiague, NY 11726, United States",11726,40.688966,-73.408326,3.9,1089
479,"1700 The Arches Cir, Deer Park, NY 11729, United States",11729,40.7622743,-73.3038236,4.2,199
480,"88-01 Queens Blvd, Queens, NY 11373, United States",11373,40.735432,-73.874396,3.8,1764
481,"1 Nevada St, Hicksville, NY 11801, United States",11801,40.777092,-73.52772,4.1,1064
482,"3328 Chambers Rd S, Horseheads, NY 14845, United States",14845,42.161168,-76.877903,4,832
483,"1 Miron Ln, Kingston, NY 12401, United States",12401,41.960867,-73.98976,4.1,516
484,"295 E Fairmount Ave, Lakewood, NY 14750, United States",14750,42.099063,-79.305425,4.3,613
485,"3938 NY-31, Liverpool, NY 13090, United States",13090,43.184833,-76.23945,4.1,1114
486,"450 NY-211 E, Middletown, NY 10940, United States",10940,41.455097,-74.382048,4.3,1068
487,"198 W Rte 59, Nanuet, NY 10954, United States",10954,41.100079,-74.020322,3.9,752
488,"4573 Commercial Dr, New Hartford, NY 13413, United States",13413,43.08619,-75.316568,4.3,960
490,"5135 Xavier Dr, Yonkers, NY 10704, United States",10704,40.927105,-73.852441,3.9,1297
491,"5 Times Square #5, New York, NY 10036, United States",10036,40.755587,-73.98753,4.2,6053
492,"261 W 125th St, New York, NY 10027, United States",10027,40.810073,-73.950483,3.8,1972
495,"230 Park Avenue at the corner of Vanderbilt Ave. and, E 45th St, New York, NY 10169, United States",10169,40.7543721,-73.9761826,3.7,34
496,"284 Van Brunt St, Brooklyn, NY 11231, United States",11231,40.6797578,-74.0103105,4.4,1195
497,"606 West Sunrise Hwy, Valley Stream, NY 11581, United States",11581,40.665243,-73.722146,3.7,2365
500,"999 Central Park Ave, Scarsdale, NY 10583, United States",10583,40.990296,-73.823046,4,681
505,"222 Lafayette St, New York, NY 10012, United States",10012,40.7221127,-73.9975893,4.4,736
508,"5010 Express Dr S, Ronkonkoma, NY 11779, United States",11779,40.813145,-73.100804,4.2,1479
509,"2255 South Rd, Poughkeepsie, NY 12601, United States",12601,41.643385,-73.92191,4.2,989
510,"750 Upper, Glen St, Queensbury, NY 12804, United States",12804,43.329415,-73.670144,4.1,790
511,"1515 W Ridge Rd, Rochester, NY 14615, United States",14615,43.205005,-77.667998,3.8,1204
512,"655 Jefferson Rd, Rochester, NY 14623, United States",14623,43.086514,-77.62513,3.7,1566
515,"2220 Nesconset Hwy, Stony Brook, NY 11790, United States",11790,40.873638,-73.124599,4.2,819
516,"2965 Erie Blvd E, Syracuse, NY 13224, United States",13224,43.055909,-76.087312,3.8,1096
517,"213 Village Dr, Syracuse, NY 13206, United States",13206,43.0730549,-76.1178236,5,1
520,"1200 Vestal Pkwy E, Vestal, NY 13850, United States",13850,42.091542,-76.029668,4.2,1157
521,"20831 NY-3, Watertown, NY 13601, United States",13601,43.975016,-75.956795,4.2,744
522,"7540 Transit Rd, Williamsville, NY 14221, United States",14221,42.973719,-78.697493,4.2,961
524,"139 Tunnel Rd, Asheville, NC 28805, United States",28805,35.591838,-82.530933,4.3,1804
525,"1726 Glidewell Dr, Burlington, NC 27215, United States",27215,36.0675054,-79.5176174,3.9,821
526,"1805 Walnut St, Cary, NC 27518, United States",27518,35.760887,-78.743214,3.9,1333
527,"8012 Concord Mills Boulevard, Concord, NC 28027, United States",28027,35.370765,-80.715896,3.9,1591
528,"4416 Durham-Chapel Hill Blvd, Durham, NC 27707, United States",27707,35.964486,-78.972943,3.8,1380
529,"533 N McPherson Church Rd, Fayetteville, NC 28303, United States",28303,35.077071,-78.95517,3.9,2059
530,"200 N New Hope Rd, Gastonia, NC 28054, United States",28054,35.264737,-81.150891,4.2,1159
531,"4415 W Wendover Ave, Greensboro, NC 27407, United States",27407,36.055021,-79.897312,3.8,1885
532,"3501 S Memorial Dr, Greenville, NC 27834, United States",27834,35.567328,-77.402595,4.1,1058
533,"1846 US-70 SE, Hickory, NC 28602, United States",28602,35.706875,-81.307223,4.1,1302
534,"304 A Western Blvd, Jacksonville, NC 28546, United States",28546,34.760056,-77.381355,4,997
535,"9801 Independence Pointe Pkwy, Matthews, NC 28105, United States",28105,35.133645,-80.713401,4,1388
536,"9415 Pineville-Matthews Rd, Pineville, NC 28134, United States",28134,35.086714,-80.877034,3.8,1281
538,"4408 Old Wake Forest Rd, Raleigh, NC 27609, United States",27609,35.841141,-78.610722,4.1,2004
539,"1010 N Wesleyan Blvd, Rocky Mount, NC 27804, United States",27804,35.970805,-77.810263,3.9,645
540,"1145 Glenway Dr, Statesville, NC 28625, United States",28625,35.809267,-80.868865,4.1,596
541,"1690 Westbrook Plaza Dr, Winston-Salem, NC 27103, United States",27103,36.068571,-80.305964,4,1428
542,"1130 E Century Ave, Bismarck, ND 58503, United States",58503,46.838501,-100.773843,4.3,1103
545,"3901 Medina Rd, Akron, OH 44333, United States",44333,41.136396,-81.640329,4.1,1056
546,"3013 N Ridge Rd E, Ashtabula, OH 44004, United States",44004,41.877819,-80.757052,4.4,496
547,"3655 Orange Pl, Beachwood, OH 44122, United States",44122,41.459639,-81.487483,3.6,1979
548,"2803 N Fairfield Rd, Beavercreek, OH 45431, United States",45431,39.771364,-84.052727,4.1,1141
549,"4600 Belden Village St NW, Canton, OH 44718, United States",44718,40.856068,-81.433846,4.3,1606
550,"1079 N Bridge St, Chillicothe, OH 45601, United States",45601,39.359103,-82.975693,4.3,679
551,"320 Cincinnati Mills Dr, Cincinnati, OH 45240, United States",45240,39.302603,-84.522908,4.1,1692
552,"616 Ohio Pike, Cincinnati, OH 45245, United States",45245,39.066047,-84.294467,4.3,1489
553,"8220 Montgomery Rd, Cincinnati, OH 45236, United States",45236,39.205548,-84.366475,4.2,1696
554,"3564 Springdale Rd, Cincinnati, OH 45251, United States",45251,39.249607,-84.595955,4,1661
556,"1520 Georgesville Rd, Columbus, OH 43228, United States",43228,39.920333,-83.125177,4.2,1700
557,"2147 S Hamilton Rd, Columbus, OH 43232, United States",43232,39.930821,-82.880071,3.8,1734
558,"1270 Polaris Pkwy, Columbus, OH 43240, United States",43240,40.142168,-82.985486,4.1,1286
559,"1691 E Dublin Granville Rd, Columbus, OH 43229, United States",43229,40.086347,-82.972826,3.8,1245
560,"6091 Sawmill Rd, Dublin, OH 43017, United States",43017,40.0902652,-83.0922592,3.9,1053
561,"1090 Graham Rd, Cuyahoga Falls, OH 44224, United States",44224,41.162537,-81.474183,4.1,1759
562,"6500 Miller Ln, Dayton, OH 45414, United States",45414,39.842561,-84.191586,4.1,1778
564,"8200 N Springboro Pike, Miamisburg, OH 45342, United States",45342,39.6314871,-84.2250014,4.2,1532
567,"6935 Midway Mall, Elyria, OH 44035, United States",44035,41.3983352,-82.1151784,4,1036
568,"17227 Southpark Center, Strongsville, OH 44136, United States",44136,41.311557,-81.820997,4.2,609
569,"2340 Tiffin Ave, Findlay, OH 45840, United States",45840,41.056029,-83.596413,4.2,710
570,"909 Hebron Rd, Heath, OH 43056, United States",43056,40.026868,-82.447033,4.3,824
571,"1515 River Valley Cir N, Lancaster, OH 43130, United States",43130,39.732411,-82.624417,4.3,765
572,"2150 Harding Hwy, Lima, OH 45804, United States",45804,40.730345,-84.0656,4.4,893
573,"2322 W 4th St, Mansfield, OH 44906, United States",44906,40.774259,-82.598615,4.4,1225
574,"1318 Mt Vernon Ave, Marion, OH 43302, United States",43302,40.581464,-83.09435,4.2,783
575,"1422 S Reynolds Rd, Maumee, OH 43537, United States",43537,41.583574,-83.664282,4.2,1435
576,"4990 Monroe St, Toledo, OH 43623, United States",43623,41.69826,-83.641003,3.9,1490
577,"7744 Reynolds Rd, Mentor, OH 44060, United States",44060,41.660607,-81.378885,4,1562
579,"255 Graff Rd SE, New Philadelphia, OH 44663, United States",44663,40.480039,-81.444533,4.2,634
580,"5701 Youngstown Warren Rd, Niles, OH 44446, United States",44446,41.210144,-80.74897,4.1,730
581,"25615 Brookpark Rd, North Olmsted, OH 44070, United States",44070,41.418315,-81.904746,4.2,1025
582,"7607 Day Dr, Parma, OH 44129, United States",44129,41.380018,-81.736628,4.1,1493
583,"991 E Ash St, Piqua, OH 45356, United States",45356,40.150588,-84.223395,4.4,812
584,"50740 Valley, Center St, St Clairsville, OH 43950, United States",43950,40.074141,-80.87063,4.4,656
585,"Mall, 4016 Milan Rd, Sandusky, OH 44870, United States",44870,41.419834,-82.675004,4.3,854
586,"1898 W 1st St, Springfield, OH 45504, United States",45504,39.941966,-83.839608,4.3,930
590,"3805 Burbank Rd, Wooster, OH 44691, United States",44691,40.846097,-81.94343,4.2,651
591,"1410 Boardman Poland Rd, Youngstown, OH 44514, United States",44514,41.024707,-80.629137,4.2,1362
593,"755 Zane St, Zanesville, OH 43701, United States",43701,39.948116,-82.001719,4.3,833
594,"3112 NW Cache Rd, Lawton, OK 73505, United States",73505,34.623081,-98.431668,4,972
595,"225 W Shawnee St, Muskogee, OK 74401, United States",74401,35.769324,-95.362007,4.1,877
596,"302 N Interstate Dr, Norman, OK 73072, United States",73072,35.220993,-97.486519,4.3,917
597,"4243 NW Expressway Street, Oklahoma City, OK 73116, United States",73116,35.540122,-97.595801,4,1299
598,"2625 W Memorial Rd, Oklahoma City, OK 73134, United States",73134,35.610176,-97.561928,4.1,1074
599,"1000 W Interstate 240 Service Rd, Oklahoma City, OK 73139, United States",73139,35.39065,-97.532021,4.2,1758
601,"435 Shawnee Mall Dr, Shawnee, OK 74804, United States",74804,35.385119,-96.926964,3.9,715
602,"102 E Hall of Fame Ave, Stillwater, OK 74075, United States",74075,36.127222,-97.058338,4.1,559
603,"4525 E 51st St, Tulsa, OK 74135, United States",74135,36.09025,-95.925289,4.2,1840
604,"6728 S Memorial Dr, Tulsa, OK 74133, United States",74133,36.064884,-95.886923,4.2,1622
605,"1085 Valley River Way, Eugene, OR 97401, United States",97401,44.069615,-123.1031031,4.2,1211
606,"240 NW Burnside Rd, Gresham, OR 97030, United States",97030,45.508982,-122.433253,4.2,1731
607,"2200 Crater Lake Hwy, Medford, OR 97504, United States",97504,42.348604,-122.877982,4.1,1234
608,"521 Lancaster Dr NE, Salem, OR 97301, United States",97301,44.937367,-122.9833881,4.3,1586
609,"10330 SW Greenburg Rd, Tigard, OR 97223, United States",97223,45.445523,-122.77596,4.1,1966
610,"3330 Pleasant Valley Blvd, Altoona, PA 16602, United States",16602,40.482793,-78.400988,4.3,834
611,"3588 PA-611, Bartonsville, PA 18321, United States",18321,41.000359,-75.270827,4.1,1431
612,"104 Moraine Pointe Plaza, Butler, PA 16001, United States",16001,40.87772,-79.95125,4.4,764
613,"935 Wayne Ave, Chambersburg, PA 17201, United States",17201,39.914396,-77.652934,4.3,550
614,"813 E DuBois Ave, DuBois, PA 15801, United States",15801,41.124738,-78.738366,4.4,827
615,"2040 Edinboro Road, Millcreek Mall, Erie, PA 16509, United States",16509,42.064744,-80.098628,4.2,740
616,"5080 US-30 E, Greensburg, PA 15601, United States",15601,40.300895,-79.492023,4.3,1194
617,"407 Eisenhower Dr, Hanover, PA 17331, United States",17331,39.824704,-76.9805,4.2,892
618,"4300 Jonestown Rd, Harrisburg, PA 17109, United States",17109,40.299569,-76.820175,4.3,1491
619,"3370 Shenango Valley Fwy, Hermitage, PA 16148, United States",16148,41.230732,-80.447703,4.3,733
620,"525 Galleria Dr, Johnstown, PA 15904, United States",15904,40.2978,-78.836327,4.4,838
621,"425 W Dekalb Pike, King of Prussia, PA 19406, United States",19406,40.090657,-75.373309,3.8,1305
622,"2090 Lincoln Hwy E, Lancaster, PA 17602, United States",17602,40.03039,-76.235892,4.2,1243
623,"2275 Lincoln Hwy, Langhorne, PA 19047, United States",19047,40.178281,-74.880185,4.1,1431
624,"640 Cowpath Rd, Lansdale, PA 19446, United States",19446,40.247645,-75.245023,4,1260
625,"16736 Conneaut Lake Rd, Meadville, PA 16335, United States",16335,41.623584,-80.201514,4.3,664
626,"4711 Carlisle Pike, Mechanicsburg, PA 17050, United States",17050,40.237877,-76.96378,4.3,1283
627,"3941 William Penn Hwy, Monroeville, PA 15146, United States",15146,40.438401,-79.775403,4.1,1504
628,"9140 Roosevelt Blvd E, Philadelphia, PA 19115, United States",19115,40.075949,-75.034346,3.9,2868
629,"259 Clairton Blvd, Pittsburgh, PA 15236, United States",15236,40.338331,-79.952066,4.3,1260
630,"6150 Robinson Centre Dr, Pittsburgh, PA 15205, United States",15205,40.451402,-80.16061,4.2,1554
631,"4766 McKnight Rd, Pittsburgh, PA 15237, United States",15237,40.519447,-80.004391,4.1,1316
633,"223 Shoemaker Rd, Pottstown, PA 19464, United States",19464,40.254113,-75.660487,4.1,1001
634,"1502 Scranton Carbondale Hwy, Scranton, PA 18508, United States",18508,41.470387,-75.636723,4,954
635,"1 Baltimore Pike, Springfield, PA 19064, United States",19064,39.924088,-75.312216,3.9,2364
636,"1670 N Atherton St, State College, PA 16803, United States",16803,40.807587,-77.896037,4.1,785
637,"515 W Main St, Uniontown, PA 15401, United States",15401,39.907815,-79.742224,4.3,612
638,"1005 Trinity Cir, Washington, PA 15301, United States",15301,40.184906,-80.223676,4.2,803
639,"800 Lehigh Lifestyle Center, Whitehall, PA 18052, United States",18052,40.633703,-75.479314,4.2,1566
640,"10 East End Center, Wilkes-Barre, PA 18702, United States",18702,41.250219,-75.851203,4.3,1133
641,"1951 E 3rd St, Williamsport, PA 17701, United States",17701,41.248613,-76.961761,4.2,737
642,"945 Woodland Rd, Wyomissing, PA 19610, United States",19610,40.346546,-75.967931,4.2,1479
643,"2555 E Market Street York Co Shopping Center, York, PA 17402, United States",17402,39.975197,-76.676487,4,906
644,"950 Aiken Mall Dr SW, Aiken, SC 29803, United States",29803,33.50789,-81.711876,4.2,729
645,"3426 Clemson Blvd, Anderson, SC 29621, United States",29621,34.547986,-82.671495,4.1,1427
646,"1270 Knox Abbott Dr, Cayce, SC 29033, United States",29033,33.979132,-81.072291,3.9,1742
647,"2080 Sam Rittenberg Blvd, Charleston, SC 29407, United States",29407,32.792409,-80.031503,3.9,947
648,"2460 Mall Dr, North Charleston, SC 29406, United States",29406,32.876556,-80.014299,3.8,1814
649,"10136 Two Notch Rd Unit 106, Columbia, SC 29229, United States",29229,34.117286,-80.881545,4,1115
651,"2540 David H McLeod Blvd, Florence, SC 29501, United States",29501,34.188277,-79.830783,4.1,826
652,"1940 Wade Hampton Blvd, Greenville, SC 29615, United States",29615,34.879194,-82.359964,4.2,1892
653,"1616 By-Pass 72 N.E, Greenwood, SC 29649, United States",29649,34.21702,-82.158306,4.2,508
654,"1230 N Retail Ct, Myrtle Beach, SC 29577, United States",29577,33.706095,-78.920426,4.4,1103
655,"10000 US-17 BUS, Myrtle Beach, SC 29572, United States",29572,33.785554,-78.778432,4.3,1127
657,"170 E Blackstock Rd, Spartanburg, SC 29301, United States",29301,34.930807,-81.989612,4,1451
658,"1034 Broad St, Sumter, SC 29150, United States",29150,33.947492,-80.374929,4.1,811
659,"120 Disk Dr, Rapid City, SD 57701, United States",57701,44.105174,-103.21276,4.4,660
660,"3901 W 41st St, Sioux Falls, SD 57106, United States",57106,43.513824,-96.773821,4.2,1245
661,"5259 Hickory Hollow Pkwy, Antioch, TN 37013, United States",37013,36.0474,-86.65692,3.9,1070
662,"2200 Bams Dr, Chattanooga, TN 37421, United States",37421,35.038958,-85.157596,4.1,1634
663,"2131 Northgate Mall Lane, Chattanooga, TN 37415, United States",37415,35.133174,-85.240775,4.2,1149
664,"2838 Wilma Rudolph Blvd, Clarksville, TN 37040, United States",37040,36.590298,-87.292712,4.1,1351
665,"1410 Interstate Dr, Cookeville, TN 38501, United States",38501,36.137401,-85.512162,4.4,833
666,"1718 Galleria Blvd, Franklin, TN 37067, United States",37067,35.964464,-86.810427,4.2,843
667,"123 Stonebrook Pl, Jackson, TN 38305, United States",38305,35.685682,-88.856578,4.3,1136
668,"1909 N Roan St, Johnson City, TN 37601, United States",37601,36.337524,-82.374024,4.3,1424
669,"8040 Kingston Pike, Knoxville, TN 37919, United States",37919,35.924076,-84.048617,4.3,1575
670,"305 Merchant Dr, Knoxville, TN 37912, United States",37912,36.009883,-83.974845,4.2,1635
671,"359 S Illinois Ave, Oak Ridge, TN 37830, United States",37830,36.007045,-84.254425,4.2,924
672,"1600 Parkway, Sevierville, TN 37862, United States",37862,35.834295,-83.573168,4.2,1983
673,"1814 Gallatin Pike N, Madison, TN 37115, United States",37115,36.299358,-86.697761,4.1,1625
674,"8161 US-64, Memphis, TN 38133, United States",38133,35.203937,-89.790456,4,1365
675,"7750 Winchester Rd, Memphis, TN 38125, United States",38125,35.049825,-89.804874,3.9,1492
676,"401 S Mt Juliet Rd STE 120, Mt. Juliet, TN 37122, United States",37122,36.167979,-86.512924,4.1,697
677,"1745 Old Fort Pkwy, Murfreesboro, TN 37129, United States",37129,35.845243,-86.419568,4.1,1305
680,"1947 N Jackson St, Tullahoma, TN 37388, United States",37388,35.386025,-86.234009,4.2,747
681,"1280 S Clack St, Abilene, TX 79605, United States",79605,32.436488,-99.78774,3.9,881
682,"3311 I-40 W, Amarillo, TX 79109, United States",79109,35.191084,-101.875182,4.1,1148
683,"4233 S Cooper St, Arlington, TX 76015, United States",76015,32.678214,-97.134486,3.9,1993
684,"3815 S Lamar Blvd, Austin, TX 78704, United States",78704,30.237734,-97.789567,4.1,1288
685,"2702 A, Parker Dr, Round Rock, TX 78681, United States",78681,30.480651,-97.682382,4,1624
686,"109 W Anderson Ln, Austin, TX 78752, United States",78752,30.343625,-97.7060922,4,1445
687,"4717 Highway 10, Baytown, TX 77521, United States",77521,29.804571,-94.987262,3.8,881
688,"2820 IH-10 East, Beaumont, TX 77703, United States",77703,30.096927,-94.132285,3.7,1106
689,"1075 FM802, Brownsville, TX 78521, United States",78521,25.949847,-97.503866,4.3,676
690,"1175 N Burleson Blvd, Burleson, TX 76028, United States",76028,32.569146,-97.319729,3.9,846
691,"1200 University Dr, College Station, TX 77840, United States",77840,30.636003,-96.319554,3.8,867
692,"2944 Interstate 45 N, Conroe, TX 77303, United States",77303,30.346264,-95.481993,4,790
693,"5825 S Padre Island Dr, Corpus Christi, TX 78412, United States",78412,27.704872,-97.365904,3.9,1491
694,"9069 Vantage Point Dr, Dallas, TX 75243, United States",75243,32.917154,-96.745682,4,1362
695,"3906 Towne Crossing Blvd, Mesquite, TX 75150, United States",75150,32.818555,-96.630881,4.1,2157
696,"10290 E Technology Blvd E, Dallas, TX 75220, United States",75220,32.862892,-96.896528,3.8,965
697,"2801 S Interstate 35 E, Denton, TX 76210, United States",76210,33.183221,-97.102309,3.9,1202
698,"603 N, S Cockrell Hill Rd, Duncanville, TX 75116, United States",75116,32.657982,-96.891844,3.8,1995
699,"8401 Gateway Blvd W, El Paso, TX 79925, United States",79925,31.7753,-106.38357,4.4,1022
700,"1860 Joe Battle Blvd, El Paso, TX 79936, United States",79936,31.756961,-106.266959,4.3,1216
701,"800 Sunland Park Dr, El Paso, TX 79912, United States",79912,31.816567,-106.547081,4.5,785
702,"4805 S Hulen St, Fort Worth, TX 76132, United States",76132,32.67675,-97.395462,4.1,1693
703,"7800 Bedford Euless Rd, North Richland Hills, TX 76180, United States",76180,32.833864,-97.211529,4.1,2090
705,"4205 W Airport Fwy, Irving, TX 75062, United States",75062,32.838366,-97.010037,4.2,1717
706,"3056 Preston Rd, Frisco, TX 75034, United States",75034,33.103328,-96.804919,3.9,988
707,"7601 Wesley St, Greenville, TX 75402, United States",75402,33.093578,-96.109226,4.1,1040
708,"2760 S Texas 6, Houston, TX 77082, United States",77082,29.729814,-95.644893,3.9,1332
709,"13232 Northwest Fwy, Houston, TX 77040, United States",77040,29.847458,-95.501408,3.8,1346
710,"302 Farm to Market 1960 Rd W, Houston, TX 77090, United States",77090,30.020533,-95.433275,3.9,997
711,"20414 US-59 N, Humble, TX 77338, United States",77338,30.011744,-95.263903,4.2,1426
712,"888 Bay Area Blvd, Webster, TX 77598, United States",77598,29.543423,-95.137183,4.1,1387
713,"25408 Bell Patna Dr, Katy, TX 77494, United States",77494,29.777652,-95.813586,4,1159
714,"2323 Hwy 6, Sugar Land, TX 77478, United States",77478,29.597503,-95.618444,4,1433
715,"4002 Spencer Hwy, Pasadena, TX 77504, United States",77504,29.664769,-95.183304,4.1,1132
720,"1001 E Central Texas Expy, Killeen, TX 76541, United States",76541,31.09542,-97.731333,3.6,1635
721,"104 HWY 332 W, Lake Jackson, TX 77566, United States",77566,29.047881,-95.456909,4.2,528
722,"5315 San Dario Ave, Laredo, TX 78041, United States",78041,27.551932,-99.502965,4.4,711
723,"2497 S Stemmons Fwy, Lewisville, TX 75067, United States",75067,33.003036,-96.966857,4,1251
724,"3515 McCann Rd, Longview, TX 75605, United States",75605,32.540466,-94.75482,3.9,1002
725,"5034 50th St, Lubbock, TX 79414, United States",79414,33.549397,-101.921138,4,1038
726,"1919 S 1st St, Lufkin, TX 75901, United States",75901,31.310591,-94.726514,4.1,677
727,"7617 N 10th St, McAllen, TX 78504, United States",78504,26.272282,-98.218756,4.1,923
728,"701 W Expy 83, McAllen, TX 78503, United States",78503,26.18835,-98.229655,4.4,1332
731,"4536 E University Blvd, Odessa, TX 79762, United States",79762,31.878778,-102.329914,4,1539
733,"11104 Broadway St, Pearland, TX 77584, United States",77584,29.555135,-95.391659,3.6,967
734,"3501 Central Expy, Plano, TX 75023, United States",75023,33.044466,-96.701671,4.1,1736
740,"4401 Kemp Blvd, Wichita Falls, TX 76308, United States",76308,33.863533,-98.535422,4.2,805
751,"8210 I-H 35 North, San Antonio, TX 78239, United States",78239,29.512894,-98.396231,4.1,1876
757,"3909 Sunset Dr, San Angelo, TX 76904, United States",76904,31.428023,-100.495563,3.9,548
758,"5815 N Loop 1604 W, San Antonio, TX 78249, United States",78249,29.591579,-98.601561,4.1,1185
760,"4550 Northwest Loop 410, San Antonio, TX 78229, United States",78229,29.488817,-98.57235,4.3,1602
761,"17415 US-281 North, San Antonio, TX 78232, United States",78232,29.602484,-98.471365,4.2,999
762,"1381 SW Loop 410, San Antonio, TX 78227, United States",78227,29.419934,-98.650435,4.2,966
763,"7835 Interstate 35 Access Rd, San Antonio, TX 78224, United States",78224,29.350613,-98.536009,4,1134
764,"100 N Interstate 35 Frontage Rd, San Marcos, TX 78666, United States",78666,29.868324,-97.938375,4,1247
765,"18446 Interstate 45 S, Shenandoah, TX 77384, United States",77384,30.188333,-95.453809,4.1,1246
766,"3600 N, US-75, Sherman, TX 75090, United States",75090,33.677216,-96.610155,4.1,989
768,"3002 St Michael Dr, Texarkana, TX 75503, United States",75503,33.461168,-94.0786,4.1,1096
769,"1500 W SW Loop 323, Tyler, TX 75701, United States",75701,32.303013,-95.318089,3.9,1332
770,"7404 Zac Lentz Pkwy, Victoria, TX 77904, United States",77904,28.864816,-96.995805,3.9,595
771,"5925 W Waco Dr, Waco, TX 76710, United States",76710,31.514011,-97.188079,4,880
774,"979 N 400 W, Layton, UT 84041, United States",84041,41.074436,-111.974549,4.2,1969
775,"298 E Winchester St, Murray, UT 84107, United States",84107,40.632109,-111.881991,4.1,2439
776,"1261 S 800 E, Orem, UT 84097, United States",84097,40.273564,-111.675526,4.2,1710
777,"263 N, Red Cliffs Dr, St. George, UT 84790, United States",84790,37.112426,-113.554409,4.3,877
778,"2294 1300 E, Salt Lake City, UT 84106, United States",84106,40.720633,-111.854114,4.1,1003
779,"555 S Van Dorn St, Alexandria, VA 22304, United States",22304,38.805088,-77.134494,3.9,1396
780,"3167 Linden Dr, Bristol, VA 24202, United States",24202,36.629216,-82.126305,4.5,870
781,"1648 Rio Rd E, Charlottesville, VA 22901, United States",22901,38.080075,-78.47346,3.8,416
782,"4115 Chesapeake Square Blvd, Chesapeake, VA 23321, United States",23321,36.825363,-76.40997,4,1288
783,"75 Peppers FRY RD NW, Christiansburg, VA 24073, United States",24073,37.163912,-80.425374,4.1,870
784,"119 Temple Lake Dr, Colonial Heights, VA 23834, United States",23834,37.253857,-77.385849,3.8,1267
785,"370 Mall Dr, Danville, VA 24540, United States",24540,36.596107,-79.421223,4.1,505
786,"10325 Fairfax Blvd, Fairfax, VA 22030, United States",22030,38.859982,-77.300925,4.2,814
787,"3109 Spotsylvania Mall Dr, Fredericksburg, VA 22407, United States",22407,38.292693,-77.517553,4.1,955
788,"1046 W Mercury Blvd, Hampton, VA 23666, United States",23666,37.043034,-76.38374,4,1026
789,"2121 E Market St, Harrisonburg, VA 22801, United States",22801,38.424566,-78.839906,4.2,695
790,"3425 Candlers Mountain Rd, Lynchburg, VA 24502, United States",24502,37.366185,-79.174248,4,551
791,"7505 Broken Branch Ln, Manassas, VA 20109, United States",20109,38.791656,-77.514797,4.2,918
792,"13236 Rittenhouse Dr, Midlothian, VA 23112, United States",23112,37.416212,-77.640357,4.1,1122
793,"12580 Jefferson Ave, Newport News, VA 23602, United States",23602,37.131484,-76.513834,4.1,1149
794,"8009 W Broad St, Richmond, VA 23294, United States",23294,37.6251,-77.53076,4.1,885
795,"4415 S Laburnum Ave, Richmond, VA 23231, United States",23231,37.529656,-77.357935,4,1080
797,"3529 Franklin Rd SW, Roanoke, VA 24014, United States",24014,37.237607,-79.968731,4.2,1189
798,"1477 Greenville Ave, Staunton, VA 24401, United States",24401,38.123085,-79.065084,4.1,515
799,"21065 Dulles Town Center, Sterling, VA 20166, United States",20166,39.028425,-77.424171,4.3,747
800,"709 Independence Blvd, Virginia Beach, VA 23455, United States",23455,36.863187,-76.132716,4.1,1542
801,"Lynnhaven Mall, 821 Lynnhaven Pkwy, Virginia Beach, VA 23452, United States",23452,36.81291,-76.069704,4.2,1225
802,"1956 Laskin Rd, Virginia Beach, VA 23454, United States",23454,36.8476587,-76.0359513,4.5,7305
803,"3311 Shore Dr, Virginia Beach, VA 23451, United States",23451,36.9060826,-76.0864067,4.4,1465
804,"2865 Lynnhaven Dr A5, Virginia Beach, VA 23451, United States",23451,36.9072187,-76.0685662,4.7,574
805,"308 Mediterranean Ave, Virginia Beach, VA 23451, United States",23451,36.8317041,-75.9782013,4.3,1219
806,"2165 General Booth Blvd STE 154, Virginia Beach, VA 23454, United States",23454,36.7653439,-76.0152092,4.5,998
807,"227 Mediterranean Ave, Virginia Beach, VA 23451, United States",23451,36.831084,-75.977238,4.4,1537
809,"2100 Richmond Rd, Williamsburg, VA 23185, United States",23185,37.299749,-76.728324,4.2,907
810,"2400 S Pleasant Valley Rd, Winchester, VA 22601, United States",22601,39.15531,-78.174569,4.2,701
811,"2544 Prince William Pkwy, Woodbridge, VA 22192, United States",22192,38.652272,-77.288658,4,984
812,"2006 S 320th St, Federal Way, WA 98003, United States",98003,47.315519,-122.307745,4.1,2012
813,"203 Three Rivers Dr, Kelso, WA 98626, United States",98626,46.143342,-122.8998779,4.2,839
814,"1120 N Columbia Center Blvd, Kennewick, WA 99336, United States",99336,46.222671,-119.222695,4.1,1253
815,"4231 196th St SW, Lynnwood, WA 98036, United States",98036,47.821342,-122.290962,4,2403
816,"4505 Martin Way E, Olympia, WA 98516, United States",98516,47.048028,-122.82499,4.1,1553
817,"3208 NW Randall Way, Silverdale, WA 98383, United States",98383,47.660166,-122.693717,4.1,1005
818,"4703 N Division St, Spokane, WA 99207, United States",99207,47.701056,-117.411557,3.9,1325
819,"1929 S 72nd St, Tacoma, WA 98408, United States",98408,47.192077,-122.460999,4.2,1827
820,"8219 NE Vancouver Mall Dr, Vancouver, WA 98662, United States",98662,45.656458,-122.5884553,4.2,1676
821,"905 N 1st St, Yakima, WA 98901, United States",98901,46.613916,-120.511168,4.1,798
822,"101 Cross Terrace Blvd, Charleston, WV 25309, United States",25309,38.317609,-81.716958,4,647
823,"200 10th St, Huntington, WV 25701, United States",25701,38.423513,-82.442233,4.3,889
824,"1512 University Town Centre Dr, Morgantown, WV 26501, United States",26501,39.655013,-80.005177,4.4,860
825,"3705 Murdock Avenue, Parkersburg, WV 26101, United States",26101,39.29717,-81.547218,4.1,684
826,"1200 N Casaloma Dr, Appleton, WI 54913, United States",54913,44.272476,-88.475569,4.2,1079
827,"1251 Lombardi Access Rd, Ashwaubenon, WI 54304, United States",54304,44.5064437,-88.0737008,0,0
828,"1019 W Clairemont Ave, Eau Claire, WI 54701, United States",54701,44.792153,-91.514552,4.4,1161
829,"4645 S 76th St, Greenfield, WI 53220, United States",53220,42.960442,-88.008841,4,2064
831,"4502 E Towne Blvd, Madison, WI 53704, United States",53704,43.127969,-89.307357,4.2,1556
832,"2800 S Green Bay Rd, Mt Pleasant, WI 53406, United States",53406,42.698815,-87.854399,3.9,1110
833,"2801 N Mayfair Rd, Wauwatosa, WI 53222, United States",53222,43.069214,-88.04852,3.4,1982
834,"5010 E 2nd St, Casper, WY 82609, United States",82609,42.848222,-106.258165,4.2,710
835,"1923 Dell Range Blvd, Cheyenne, WY 82009, United States",82009,41.159724,-104.794425,3.9,901
