Address,ZIP,lat,lng
"3703 Ellison Drive Nw SUITE #C, Albuquerque, NM 87114",87114,35.2074072,-106.653995
"39112 Winchester Rd STE 108, Murrieta, CA 92563",92563,33.5518567,-117.1383672
"5041 Gosford Rd. F-1, Bakersfield, CA 93313",93313,35.3090117,-119.0926145
"848 North Route 59 SUITE A, Aurora, IL 60504",60504,41.7686049,-88.2063467
"10417 Gravelly Lake Drive Sw STE#H, Lakewood, WA 98499",98499,47.16216759,-122.5184177
"5345 North Garland Ave SPACE #350, Garland, TX 75040",75040,32.9645024,-96.6444466
"1950 E. University Drive SUITE #106, Mesa, AZ 85206",85206,33.4233407,-111.7887427
"689 Lomas Santa Fe Dr SUITE# A & B, Solana Beach, CA 92075",92075,32.996026,-117.259685
"200 E. Via Rancho Pkwy #441, Escondido, CA 92025",92025,33.070471,-117.0649122
"2501 W. Happy Valley Road #50-1290, Phoenix, AZ 85085",85085,33.7101008,-112.1124809
"21155 Sw Baler Way SUITE 113, Sherwood, OR 97140",97140,45.3674765,-122.8390327
"13783 W. Oasis Service Rd. SPACE #113B, Lake Forest, IL 60045",60045,42.25313994,-87.90082589
"9008 Sepulveda Blvd. E-4, North Hills, CA 91343",91343,34.2346811,-118.4670327
"9304 Elk Grove Blvd 130, Elk Grove, CA 95624",95624,38.408791,-121.3522571
"3765 S. Gilbert Road 101, Gilbert, AZ 85296",85296,33.28177019,-111.7890735
"10250 Santa Monica Blvd. FC-6, Los Angeles, CA 90067",90067,34.0583989,-118.4190067
"340 Orland Square OC11, Orland Park, IL 60462",60462,41.6196268,-87.8487604
"1150 El Camino Real SUITE 196, San Bruno, CA 94066",94066,37.6359,-122.4187981
"750 South Progress Ave. Suite #100, Meridian, ID 83642",83642,43.5973249,-116.3901212
"5347 North Blackstone Ave SUITE #102, Fresno, CA 93710",93710,36.8137423,-119.7907967
"29 East Madison SUITE 191, Chicago, IL 60602",60602,41.8818418,-87.6266322
"15951 Fm529 100, Houston, TX 77095",77095,29.8785598,-95.6504781
"750 Citadel Drive East SUITE #2248, Colorado Springs, CO 80909",80909,38.8433755,-104.7629537
"42175 Washington St. A, Palm Desert, CA 92211",92211,33.7426299,-116.304361
"5825 Lincoln Avenue Suite # A, Buena Park, CA 90620",90620,33.83198051,-118.0314102
"14850 N Frank Lloyd Wright Blv SUITE #101, Scottsdale, AZ 85260",85260,33.6201371,-111.8768544
"600 Highway 95 SUITE #600, Bullhead City, AZ 86442",86442,35.1663124,-114.5644488
"20700 Avalon Blvd Space #26, Carson, CA 90746",90746,33.8441199,-118.2610474
"1710 South Orange Blossom TRAILWAY Unit #6, Apopka, FL 32703",32703,28.6511619,-81.4673865
"6100 O St. FC-8 Gateway Mall, Lincoln, NE 68505",68505,40.815097,-96.637898
"14040 Fm 2920 A, Tomball, TX 77377",77377,30.0909964,-95.6335372
"4-831 Kuhio Highway SUITE 222-224, Kapaa, HI 96746",96746,22.0627422,-159.3212267
"12632 S Route 59 SPACE #100, Plainfield, IL 60544",60544,41.6531506,-88.2045696
"7046 Walton St. Space #2, Rockford, IL 61108",61108,42.2681552,-88.9790553
"2707 West Highway 54 SUITE #15, Peachtree City, GA 30269",30269,33.3971477,-84.5980877
"1752 S. Signal Butte Rd. SUITE 111, Mesa, AZ 85208",85208,33.38281883,-111.5994296
"1155 St. Louis Galleria FC-5, Saint Louis, MO 63117",63117,38.63427,-90.3480221
"1400 Brundage Lane SPACE #101, Bakersfield, CA 93304",93304,35.3542194,-119.0179207
"8400 Sw Nimbus Ave SUITE #100, Beaverton, OR 97008",97008,45.4587383,-122.7888918
"12700 Spine Road Sw #E-F4, Atlanta, GA 30354",30354,33.6407572,-84.4324965
"4505 Maryland Parkway SPACE #5, Las Vegas, NV 89154",89154,36.106732,-115.1436243
"1720 Story Road Suite 40, San Jose, CA 95122",95122,37.3401073,-121.8422306
"9319 Hwy. 6 South SPACE #A, Houston, TX 77083",77083,29.6775862,-95.6427333
"13307 Ne Highway 99 SUITE #107, Vancouver, WA 98686",98686,45.7172329,-122.6520026
"4700 West Pico Blvd. SPACE #E, Los Angeles, CA 90019",90019,34.0482914,-118.3377602
"11610 Evergreen Way #1/B, Everett, WA 98204",98204,47.892532,-122.2561546
"3100 14th Street Nw SUITE 105, Washington, DC 20010",20010,38.9295706,-77.0331958
"6600 Topanga Canyon Blvd SUITE #FC-3, Canoga Park, CA 91303",91303,34.1901874,-118.6032891
"5353 Katella Ave SPACE #C, Cypress, CA 90630",90630,33.8035765,-118.0404596
"3340 Mall Loop Drive SPACE #1324, Joliet, IL 60431",60431,41.5762899,-88.1655663
"688 North Alafaya Trail SUITE #110, Orlando, FL 32828",32828,28.557147,-81.2078243
"6475 North Decatur Blvd. SUITE 100, Las Vegas, NV 89130",89130,36.2768677,-115.2078847
"27 South Western Avenue SUITE #1, Carpentersville, IL 60110",60110,42.1067398,-88.2937015
"29989 Canyon Hills Road Suite #1700, Lake Elsinore, CA 92532",92532,33.6668078,-117.2635522
"15703 Pines Blvd. SPACE #E, Pembroke Pines, FL 33027",33027,26.0082834,-80.3552083
"401 W. Whitestone Blvd. SPACE A, Cedar Park, TX 78613",78613,30.520396,-97.8342993
"1029 Makolu Street SUITE K, Pearl City, HI 96782",96782,21.3994647,-157.9738964
"19201 G Bear Valley Road SPACE PAD G, Apple Valley, CA 92308",92308,34.4705591,-117.2431807
"8760 North Michigan Road Suite #104, Indianapolis, IN 46268",46268,39.9142089,-86.2245709
"500 West Madison Street 1st FLOOR, Chicago, IL 60661",60661,41.8822187,-87.6405296
"13471 Telegraph Rd. Suite C, Whittier, CA 90605",90605,33.9396789,-118.0451758
"1401 State Hwy. 6 SPACE #A, Sugar Land, TX 77478",77478,29.6031426,-95.6327444
"2239 Georgia Highway 20 Suite L, Conyers, GA 30013",30013,33.631569,-84.015175
"5075 Main Street SUITE #120, American Canyon, CA 94503",94503,38.181007,-122.2539554
"43384 Boscell Road SPACE #A, Fremont, CA 94538",94538,37.5036926,-121.9754838
"775 Commonwealth Ave DINING SERVICES, Boston, MA 02215",2215,42.3509605,-71.1088587
"4585 W. Higgins Rd. BLDG N-1, Hoffman Estates, IL 60192",60192,42.0742811,-88.1906219
"4940 W. Century Blvd. #1-A, Inglewood, CA 90304",90304,33.9450532,-118.3647274
"2740 41st Ave BLDG C, Soquel, CA 95073",95073,36.9869211,-121.9645948
"14220 Centreville Square SPACE ""C"", Centreville, VA 20122",20122,38.8380723,-77.4381952
"29145 Canwood St A-5, Agoura Hills, CA 91301",91301,34.1464462,-118.7588939
"2960 South Academy Blvd. SUITE 110, Colorado Springs, CO 80916",80916,38.7896147,-104.7587055
"970 North Congress Avenue SUITE #100, Boynton Beach, FL 33426",33426,26.536505,-80.090067
"Coffman Memorial Union 300 Washington Ave. SE, Minneapolis, MN 55455",55455,44.9727,-93.2354
"1000 South State Road 7 SUITE 5, Wellington, FL 33414",33414,26.6638122,-80.2021838
"7351 Assateague DriveSuite #10, Jessup, MD 20794",20794,39.1695021,-76.7859394
"33010 Fm 2978 RoadSPC - Lot 9, Magnolia, TX 77354",77354,30.2201041,-95.5676144
"865 Market StreetC-24, San Francisco, CA 94103",94103,37.784118,-122.4064352
"415 West Felicita Ave.SUITE #413, Escondido, CA 92025",92025,33.1035861,-117.0745016
"8251 Brucesville RoadSUITE #100, Sacramento, CA 95823",95823,38.4586231,-121.4168853
"8039 Beach Blvd.SHOOTER's PARADISE, Buena Park, CA 90620",90620,33.8427827,-117.9983669
"4467 Mission Blvd.SUITE D & E, Montclair, CA 91763",91763,34.0554567,-117.7074631
"1121 South Decatur Blvd.SUITE 100, Las Vegas, NV 89102",89102,36.1584067,-115.2053419
"94-1221 Ka Uka Blvd.SUITE B-101 & B-102, Waipahu, HI 96797",96797,21.4264184,-158.0013947
"6802 S. La Cienega Blvd.SPACE A, Inglewood, CA 90302",90302,33.9769775,-118.3698175
"287 Los Altos ParkwaySUITE #113 (H-6), Sparks, NV 89436",89436,39.5834734,-119.7392754
"9119 East Montgomery AveSUITE A, Spokane, WA 99206",99206,47.6790548,-117.2819965
"10213 Ne Cascades ParkwayBLDG M SUITE 100, Portland, OR 97220",97220,45.5726574,-122.5571828
"5410 Silver Hill RoadUNIT #1, District Heights, MD 20747",20747,38.8528532,-76.9131775
"960 Park Ave NorthSuite #104-A, Renton, WA 98055",98055,47.4974279,-122.2018339
"15909 Bellflower Blvd.SUITE A, Bellflower, CA 90706",90706,33.8886214,-118.1258258
"1402 Se Everett Mall WaySpace #670, Everett, WA 98208",98208,47.9096929,-122.2131937
"120 Fox Valley CenterSPACE #BQ-11, Aurora, IL 60504",60504,41.7558356,-88.2112856
"8366 Westheimer RoadSPACE A, Houston, TX 77063",77063,29.7381025,-95.5131857
"331 South State Road 135SUITE A, Greenwood, IN 46142",46142,39.6102057,-86.1577014
"4750 South 48th StreetSUITE 121, Phoenix, AZ 85040",85040,33.4041326,-111.9788941
"7670 Katy Freeway100, Houston, TX 77024",77024,29.7859546,-95.4675014
"501 E. Albertoni StreetSUITE #A, Carson, CA 90746",90746,33.8721335,-118.2671076
"2600 South Center MallFC-10, Tukwila, WA 98188",98188,47.4586998,-122.2612142
"9758 Katy FwySUITE 100, Houston, TX 77055",77055,29.7857017,-95.5335033
"9685 Liberia Ave.SUITE 110, Manassas, VA 20110",20110,38.7470615,-77.4489122
"312 Keawe StreetBuilding A, Lahaina, HI 96761",96761,20.8848916,-156.6798135
"900 University Ave.COMMONS, ROOM 160, Riverside, CA 92521",92521,33.978881,-117.3281427
"5861 Long Prarie RoadSPACE 100, Flower Mound, TX 75028",75028,33.0654955,-97.081094
"1640 Milwaukee AveUNIT 500, Vernon Hills, IL 60061",60061,42.2558776,-87.9483898
"23572 El Toro RoadSUITE A, Lake Forest, CA 92630",92630,33.620015,-117.7005691
"14022 Revell DriveParcel 2-A, Jacksonville, FL 32218",32218,30.4812953,-81.6369804
"2604 Old Denton RoadSUITE #100, Carrollton, TX 75007",75007,32.9843549,-96.9091677
"1500 N.e. Terrell MallLEVEL 1 ROOM 100, Pullman, WA 99163",99163,46.7310598,-117.1622764
"6651 South Semoran Blvd.SPACE #101, Orlando, FL 32822",32822,28.4671188,-81.3085615
"6560 Hembree LanePAD 6 BUILDING, Windsor, CA 95492",95492,38.5274514,-122.7888542
"9918 Knockando LaneSUITE #100, Huntersville, NC 28078",28078,35.4421395,-80.8585184
"688 Sutton WayBuilding #5, Grass Valley, CA 95945",95945,39.2338763,-121.0365947
"11090 Magnolia AveSuite A, Riverside, CA 92505",92505,33.9033744,-117.475739
"5829 Jarvis Ave.SUITE E, Newark, CA 94560",94560,37.5523435,-122.0481326
"2131 Monterey Hwy, Suite #60Bldg #30, San Jose, CA 95125",95125,37.3053667,-121.8635389
"1717 Walnut Grove AveSuite 100, Rosemead, CA 91770",91770,34.0495002,-118.082349
"79835 Hwy 111SUITE 101, La Quinta, CA 92253",92253,33.7063265,-116.2715309
"8848 Calvine RoadSUITE 100, Elk Grove, CA 95624",95624,38.45225423,-121.3740542
"47 Douglas DriveSUITE 103, Oceanside, CA 92054",92054,33.2272852,-117.3265353
"3045 Columbia Blvd.BUILDING AA - 1C, Titusville, FL 32780",32780,28.5519826,-80.8396051
"275 East Altamonte DriveUNIT #1020, Altamonte Springs, FL 32701",32701,28.6626797,-81.3831564
"5620 Roswell RoadSUITE 120, Sandy Springs, GA 30358",30358,33.9066077,-84.3791284
"8705 West Loop SouthSUITE 100, Houston, TX 77096",77096,29.6868595,-95.4579189
"Student Center BuildingVISTA DRIVE, Nacogdoches, TX 75962",75962,31.603587,-94.65562
"17100 South Center ParkwaySUITE #100, Tukwila, WA 98188",98188,47.4501139,-122.2612495
"12513 Lake City WaySUITE A & B, Seattle, WA 98125",98125,47.7198584,-122.2952238
"4301 W. William CannonBUILDING G. SUITE 100, Austin, TX 78749",78749,30.2196446,-97.8416454
"2233 Kalakaua AveB4, Honolulu, HI 96815",96815,21.2786287,-157.8289927
"5807 University Avenue1, BUILDING A, San Diego, CA 92115",92115,32.7491206,-117.07195
"8929 Madison AvenueSuite 210, Fair Oaks, CA 95628",95628,38.6646677,-121.2230456
"4245 Marconi Ave105, Sacramento, CA 95821",95821,38.6181905,-121.3647918
"1668 E. 2nd St. Market PlaceSUITE G, Beaumont, CA 92223",92223,33.924119,-116.94723
"460 W. Vandalia Ave.SUITE A, Porterville, CA 93257",93257,36.0538759,-119.0268843
"405 E. Best AveSUITE 101, Coeur D' Alene, ID 83814",83814,47.7011614,-116.7801754
"640 W. El Monte WayPARCEL LOT #4, Dinuba, CA 93618",93618,36.545673,-119.4010207
"2510 Columbia House BoulevardSUITE 101, Vancouver, WA 98661",98661,45.6189909,-122.6451937
"3587 East Broadway RoadSuite A125, Tucson, AZ 85716",85716,32.2219918,-110.916344
"404 Weber RdSuite E, Romeoville, IL 60446",60446,41.6084696,-88.1239799
"2622 Holcomb Bridge RoadSUITE 140, Alpharetta, GA 30022",30022,33.9997973,-84.2837313
"5234 East Highway 100SUITE #110, Palm Coast, FL 32164",32164,29.4762002,-81.2158643
"3651 WeslayanSUITE 120, Houston, TX 77046",77046,29.7339228,-95.4410482
"10689 Sudley Manor DriveSuite 105, Manassas, VA 20109",20109,38.78525406,-77.5167118
"2448 West Loop 340A-19, Waco, TX 76711",76711,31.4977742,-97.1586058
"1933 N. Dinuba Blvd.A, PAD #4, Visalia, CA 93291",93291,36.3473701,-119.2972132
"4250 Macdonald AvenueSUITE A, Richmond, CA 94805",94805,37.9329509,-122.3295297
"1906 North Davis RoadSpace #201, Salinas, CA 93907",93907,36.7182294,-121.6668067
"500 South MacarthurSUITE 100, Oklahoma City, OK 73128",73128,35.461972,-97.6180581
"2220 Lake Washington Blvd.SUITE 100, West Sacramento, CA 95691",95691,38.5540203,-121.538737
"23861 Clinton Keith RoadSUITE #1, Wildomar, CA 92595",92595,33.5940541,-117.242367
"1750 Delta Waters RoadSUITE #106, Medford, OR 97504",97504,42.36127659,-122.8598414
"2590 Jensen AvenuePIZZA HUT BUILDING, Sanger, CA 93657",93657,36.70705,-119.5740034
"506 Truncado StreetF108, Hatillo, PR 00659",659,18.47980761,-66.771552
"4904 Borgen Blvd.SUITE B, Gig Harbor, WA 98335",98335,47.35951454,-122.6044932
"309 South BryantSUITE 170, Edmond, OK 73034",73034,35.6513376,-97.4611853
"6000 Universal BlvdSuite 745H, Orlando, FL 32819",32819,28.4730602,-81.461958
"1507 Mitchell RoadSUITE #100, Ceres, CA 95307",95307,37.6088062,-120.9392163
"201 E. Central TexasEXPRESSWAY LOT 8, Harker Heights, TX 76548",76548,31.0737433,-97.6649639
"7300 Aliante Pkwy.SUITE 2, North Las Vegas, NV 89084",89084,36.2919853,-115.1806678
"2410 West Jefferson StreetSPACE 100, Joliet, IL 60436",60436,41.5216344,-88.1422595
"1151 Galleria Blvd.FC10, Roseville, CA 95678",95678,38.7734416,-121.2692829
"4720 Blue Diamond RoadSUITE 1040, Las Vegas, NV 89139",89139,36.0341615,-115.2054062
"100 S. Mannheim Rd.Hillside Town Center #G05, Hillside, IL 60162",60162,41.866891,-87.8832021
"480 Kamokila Blvd.4, BLDG. B, Kapolei, HI 96707",96707,21.3298986,-158.0864306
"74-5450 E110 Makala Blvd.E110-E111, Kailua Kona, HI 96740",96740,19.650101,-156.0043984
"1818 S. Durfee Ave.Suite 2B, South El Monte, CA 91733",91733,34.0435059,-118.0320578
"395 E. Plumb LaneSUITE H, Reno, NV 89502",89502,39.5062357,-119.7985347
"13460 Beach Blvd6, Jacksonville, FL 32224",32224,30.2871045,-81.4635476
"33550 South Dixie HwySUITE 100, Florida City, FL 33034",33034,25.4567244,-80.4758858
"901 Blanding Blvd.Suite #1, Orange Park, FL 32065",32065,30.1397196,-81.7701401
"1782 Sw Saint Lucie West BlvdBay A, Port Saint Lucie, FL 34986",34986,27.3107106,-80.4061957
"12332 Miramar PkwyBay #192, Miramar, FL 33025",33025,25.9779705,-80.3104163
"30024 Haun RoadSUITE 160, Menifee, CA 92584",92584,33.6845744,-117.174794
"308 Westwood PlazaACKERMAN UNION LV.1, Los Angeles, CA 90024",90024,34.070418,-118.4441451
"One Utsa CircleUC 1.01.12, San Antonio, TX 78249",78249,29.5845212,-98.6172916
"3 Woodfield Mall108A & 110, Schaumburg, IL 60173",60173,42.0481959,-88.0384303
"120 Science DriveBRYAN CENTER, Durham, NC 27708",27708,36.0010658,-78.9409541
"1689 Arden WaySUITE 2022, Sacramento, CA 95815",95815,38.6015798,-121.4273691
"3401 Dale Rd.Space #467, Modesto, CA 95356",95356,37.6871609,-121.0517748
"400 South Baldwin AveSUITE #811-L, Arcadia, CA 91007",91007,34.1349204,-118.0509968
"6013 Florin Rd300, Sacramento, CA 95823",95823,38.496469,-121.4330217
"1430 West Carmel DriveSuite 100, Carmel, IN 46032",46032,39.9719146,-86.154197
"Joe Crowley Student Union, 1664 N. Virginia St290A, Reno, NV 89503",89503,39.544123,-119.8158924
"4001 Santa Rita Rd.7, Pleasanton, CA 94588",94588,37.6978414,-121.8747345
"834 Nw Loop 410Suite #109, San Antonio, TX 78216",78216,29.5174738,-98.50625
"3058 Mallory LaneSte. 120, Franklin, TN 37067",37067,35.9447137,-86.8188013
"15555 E 14th StFC 6, San Leandro, CA 94578",94578,37.6994218,-122.1233198
"39429 Fremont BoulevardSte B, Fremont, CA 94538",94538,37.5441898,-121.9830805
"2725 N. MesaSUITE #200, El Paso, TX 79902",79902,31.7772107,-106.5038973
"15902 Crain HwySUITE A, Brandywine, MD 20613",20613,38.6743211,-76.8750038
"1907 Well RoadSuite 1, Orange Park, FL 32073",32073,30.1873835,-81.735201
"4025 E. Chandler Blvd.SUITE 58, Phoenix, AZ 85048",85048,33.3044612,-111.9945753
"1115 Fresno Street101, Fresno, CA 93706",93706,36.73042,-119.8006386
"905 Market Place Blvd.SUITE A, Cumming, GA 30041",30041,34.1811541,-84.1330039
"6000 Sepulveda BlvdSUITE 3272, Culver City, CA 90230",90230,33.9854413,-118.395128
"2100 88th StreetSUITE F-1, North Bergen, NJ 07047",7047,40.8141061,-74.0135352
"1351 E. Debbie LaneLot 6, Mansfield, TX 76063",76063,32.6063421,-97.1171685
"13350 Dallas ParkwaySUITE 915, Dallas, TX 75240",75240,32.9299455,-96.8198347
"4248 S New Braunfels AveSUITE 101, San Antonio, TX 78223",78223,29.3757533,-98.4577969
"101 Highlands BlvdSuite A, Manchester, MO 63011",63011,38.5930492,-90.5055886
"480 N. Highway 90 BypassA1, Sierra Vista, AZ 85635",85635,31.5599484,-110.2579451
"5030 Hadley Center DriveSuite 5030, South Plainfield, NJ 07080",7080,40.5496185,-74.4257926
"6733 N. Riverside Dr.Suite 111, Fresno, CA 93722",93722,36.8361257,-119.9123814
"21025 U.s. Hwy 281 N#1302, San Antonio, TX 78258",78258,29.6421783,-98.4549654
"2534 Powell Ave110, Nashville, TN 37204",37204,36.1060504,-86.7635386
"98-1005 Moanalua RdSuite #FC7, Aiea, HI 96701",96701,21.385418,-157.9416305
"655 Reitz Union DriveJ Wayne Reitz Union, Gainesville, FL 32611",32611,29.6459793,-82.3476979
"Louisana State UniversityTiger Lair - LSU Union, Baton Rouge, LA 70803",70803,30.41260514,-91.17714907
"6000 J StreetSpace #1005C, Sacramento, CA 95819",95819,38.5634901,-121.4281692
"7111 E. Tanque VerdeSuite #101, Tucson, AZ 85715",85715,32.2513236,-110.8402057
"129 Los Cerritos CenterFC#15, Cerritos, CA 90703",90703,33.8638981,-118.0955078
"800 N. State College BlvdTitan Student Union Food Court, Fullerton, CA 92831",92831,33.8791104,-117.8835005
"6000 J Street.Riverfront Center, Sacramento, CA 95819",95819,38.5634901,-121.4281692
"4500 N Oracle RdBox 454, Tucson, AZ 85705",85705,32.2891242,-110.9741657
"3938 Factoria Mall SeSuite B-1, Bellevue, WA 98006",98006,47.5751412,-122.1708202
"510 North Thompson LaneA, Murfreesboro, TN 37129",37129,35.856188,-86.429647
"3525 Del Mar Heights Rd.Suite B2, San Diego, CA 92130",92130,32.9535413,-117.2304232
"1600 Sw Archer RoadHealth Science Campus, Gainesville, FL 32611",32611,29.640164,-82.3439055
"One Stoneridge Mall Rd.A111, Pleasanton, CA 94588",94588,37.6957464,-121.92924
"4180 N. First St.70, San Jose, CA 95134",95134,37.4159966,-121.9546452
"2901 S Capitol Of Texas HwyVC06, Austin, TX 78746",78746,30.2576953,-97.8069052
"13520 W. Paxton StreetSuite A-2, Pacoima, CA 91331",91331,34.2734786,-118.4260397
"2041 Bronze Star Dr.500, Woodland, CA 95776",95776,38.6702529,-121.7264658
"6191 S. State St.#1390, Murray, UT 84107",84107,40.6381663,-111.888805
"1350 Travis Blvd.Suite 1364-B, Fairfield, CA 94533",94533,38.2641729,-122.0523239
"12330 Carmel Mountain RoadC5, San Diego, CA 92128",92128,32.9874866,-117.0759696
"19461 State Hwy 410 EastSpace C, Bonney Lake, WA 98391",98391,47.1695505,-122.1699505
"2601 Preston RoadSuite 2042, Frisco, TX 75034",75034,33.0987479,-96.8110457
"Expresso Pr #52, Salida 4aSpace FC103, San Juan, PR 00926",926,18.338558,-66.06905
"3001 S 144th StV05, Omaha, NE 68144",68144,41.2297135,-96.1348394
"3301 E. Main St.Space 2580, Ventura, CA 93003",93003,34.2687175,-119.2487706
"1122 Nw Garden Valley Blvd.301, Roseburg, OR 97471",97471,43.2305512,-123.3707693
"3663 Las Vegas Blvd S#530, Las Vegas, NV 89109",89109,36.1107901,-115.1714113
"12098 Fury LaneSuite D, El Cajon, CA 92019",92019,32.743575,-116.933764
"1730 W. Fullerton Ave.25, Chicago, IL 60614",60614,41.9259915,-87.6730624
"700 N. Zaragoza RdSte Z, El Paso, TX 79907",79907,31.7032282,-106.3189552
"48400 Seminole Dr.D440, Cabazon, CA 92230",92230,33.9289171,-116.8158445
"1401 E Jackson Ave#100, Mc Allen, TX 78503",78503,26.19126578,-98.20677846
"350 N. Central Ave.Suite KA-120, Farmington, UT 84025",84025,40.9859447,-111.9059282
"2 Connecticut Turnpike WestService Plaza, Milford, CT 06460",6460,41.2465367,-73.0101374
"11941 Fair Oaks MallBldg U, Fairfax, VA 22033",22033,38.8626616,-77.3602429
"6774 Bernal Ave.Suite 330, Pleasanton, CA 94588",94588,37.6574602,-121.8984732
"198 Lee BlvdMississippi State University - Colvard Student Union, Starkville, MS 39760",39760,33.4548033,-88.7901131
"1310 Wilmore Drive.Foy Hall, Auburn, AL 36849",36849,32.6046871,-85.4848763
"4008 172nd St. NeA, Arlington, WA 98223",98223,48.1520074,-122.175563
"2700 West UniversitySuite 1040, Denton, TX 76201",76201,33.2306421,-97.1668338
"4400 University DrUniversity Hall, Fairfax, VA 22030",22030,38.8345098,-77.3111156
"525 W. Santa Clara St.Ste. 220, San Jose, CA 95113",95113,37.3328654,-121.9010368
"Bldg 1231, Holcomb BlvdFood Court, Camp Lejeune, NC 28547",28547,34.67487448,-77.34107644
"6311 82nd St#2, Lubbock, TX 79424",79424,33.51917,-101.955338
"122 Hawthorn Center Dr.901, Vernon Hills, IL 60061",60061,42.2430635,-87.9499412
"150 Hutton Ranch Rd.Suite 101, Kalispell, MT 59901",59901,48.23273927,-114.3280835
"3717 Las Vegas Blvd. South215, 2L, Las Vegas, NV 89109",89109,36.108719,-115.1721291
"2260 Gunbarrel Road#207, Chattanooga, TN 37421",37421,35.0370423,-85.1511918
"1050 El Camino RealD, Belmont, CA 94002",94002,37.5197688,-122.2755325
"7700 W Arrowhead Towne Ct#2091, Glendale, AZ 85308",85308,33.6421362,-112.2252174
"5458 Ygnacio Valley Road20 & 30, Concord, CA 94521",94521,37.9514039,-121.9565389
"10831 Olson DriveA, Rancho Cordova, CA 95670",95670,38.5942303,-121.2853082
"1605 S. Riverside Ave.101, Rialto, CA 92376",92376,34.072777,-117.369755
"3811 South Cooper StreetSpace#2158, Arlington, TX 76015",76015,32.68016,-97.1290569
"12530 Limonite Ave.100, Mira Loma, CA 91752",91752,33.9748309,-117.5563781
"1901 Nw Expressway#2051, Oklahoma City, OK 73118",73118,35.5246909,-97.5440106
"4201 Broadway St.A, Mount Vernon, IL 62864",62864,38.3136112,-88.9426189
"3131 College Dr.#300, Baton Rouge, LA 70808",70808,30.418589,-91.1413432
"5800 Northgate Mall142, San Rafael, CA 94903",94903,38.0034159,-122.5441427
"9659 Milliken Ave.101, Rancho Cucamonga, CA 91730",91730,34.0780355,-117.557767
"2603 North East Bob Bullock LoopSuite #100, Laredo, TX 78045",78045,27.6120099,-99.4645817
"2024 Concessions PentagonFood Court 2nd Floor, Corridor 7/8, Washington, DC 20310",20310,38.9071923,-77.0368707
"Missouri State UniversityPlaster Student Union, Springfield, MO 65807",65807,37.200799,-93.281331
"620 Briarwood CircleD113, Ann Arbor, MI 48108",48108,42.2403346,-83.7509759
"200 S. Central Campus Dr.Ray Olpin Union Building Food Court, Salt Lake City, UT 84112",84112,40.76496622,-111.8462167
"275 Joe Routt BlvdSte L319 Bldg 454, College Station, TX 77840",77840,30.6122063,-96.3411304
"500 Lakewood Center Mall131, Lakewood, CA 90712",90712,33.8496346,-118.1404388
"18 South County CenterwayFC-2, Saint Louis, MO 63129",63129,38.5041547,-90.3283724
"2800 N. Campbell Ave.100, Tucson, AZ 85719",85719,32.257868,-110.9432411
"3901 N. Market StreetB, Spokane, WA 99207",99207,47.6937016,-117.3655921
"4750 North Division2154, Spokane, WA 99207",99207,47.7024124,-117.4089483
"1633 Main StreetF, Billings, MT 59105",59105,45.8277545,-108.4701718
"3571 N. Freeway Blvd.100, Sacramento, CA 95834",95834,38.6401084,-121.4998991
"2318 N. Tustin St.Suite C, Orange, CA 92865",92865,33.8286208,-117.8366865
"2560 Mccarthy MallParadise Palms, Honolulu, HI 96822",96822,21.3000088,-157.81646
"1503 E San Marnan DriveSuite A, Waterloo, IA 50702",50702,42.4650829,-92.3251164
"6150 E. Lake Sammamish Parkway SeC & D, Issaquah, WA 98029",98029,47.5474844,-122.0402051
"9411 Webb Chapel RdSte 100, Dallas, TX 75220",75220,32.8610997,-96.8587647
"1740 Airline HighwaySuite 420, Hollister, CA 95023",95023,36.8366249,-121.3896261
"3 State Farm Plaza SouthBldg H, Bloomington, IL 61791",61791,40.457373,-88.956696
"188 West County CenterFC-7, Des Peres, MO 63131",63131,38.6032825,-90.4464576
"140 South Mountain AveSpace #C, Upland, CA 91786",91786,34.0935475,-117.6695685
"91-1061 Keaunui DriveBUILDING N - SPACE 5, Ewa Beach, HI 96706",96706,21.3269433,-158.0214667
"4103 Usf Cedar Cir, Marshall Student CenterUniversity of South Florida, Tampa, FL 33620",33620,28.06398,-82.413883
"1040 Sperry Ave.103, Patterson, CA 95363",95363,37.4640404,-121.1427406
"2000 Elitch CircleBuilding 6.34, Denver, CO 80204",80204,39.7502094,-105.0110042
"Pr #3, Km 9.6Avenida Roberto Clemente, Carolina, PR 00979",979,18.381792,-65.964019
"1400 University Ave.Suite 105, Las Cruces, NM 88001",88001,32.285009,-106.751261
"The Mall Of Columbia10300 Little Patuxent Parkway Suite 1415, Columbia, MD 21044",21044,39.215591,-76.861178
"6805 Houston RoadSuite 100, Florence, KY 41042",41042,39.0111768,-84.6469292
"95-1249 Meheula ParkwaySuite D-21, Mililani, HI 96789",96789,21.4521526,-158.0056188
"One Bellis Fair Parkway500, Bellingham, WA 98226",98226,48.7860408,-122.4906565
"7101 Democracy BlvdFC #5, Bethesda, MD 20817",20817,39.0241209,-77.1459575
"6587 Las Vegas Blvd SouthBldg M, Ste B-185, Las Vegas, NV 89119",89119,36.0682464,-115.1785589
"3310 Iowa StB, Lawrence, KS 66046",66046,38.9242161,-95.259936
"Tom Bradley Terminal WestOne World Way, Los Angeles, CA 90044",90044,33.9428441,-118.4092948
"3425 Salida StreetSuite A, Aurora, CO 80011",80011,39.7641975,-104.7726805
"102 E.ovilla RdBldg A, Red Oak, TX 75154",75154,32.5323841,-96.8186519
"3141 Crow Canyon Pl.Suite # G, San Ramon, CA 94583",94583,37.7784818,-121.9687274
"361 N. Capitol Ave10, San Jose, CA 95132",95132,37.3710743,-121.8447968
"6900 N. Mesa St#A, El Paso, TX 79912",79912,31.8355715,-106.5475747
"10722 Sunset Hills PlazaSpace A1, Saint Louis, MO 63127",63127,38.5526366,-90.4076121
"1384 Higdon FerrySuite C, Hot Springs National Park, AR 71913",71913,34.4687449,-93.0694534
"5295 Whittlesey BlvdSte 100, Columbus, GA 31909",31909,32.5416973,-84.9504453
"32411 St Of The Golden Lantern#5R, Laguna Niguel, CA 92677",92677,33.492031,-117.696958
"1088 W. Marine Corps DriveMicronesia Mall - Food Court Space C-221, Dededo, GU 96929",96929,13.5204393,144.8177869
"5410 Crossings Dr.103, Rocklin, CA 95677",95677,38.800065,-121.2049038
"303 W Texas AveLions Den Food Court, Student Union, Hammond, LA 70402",70402,30.514038,-90.467716
"5720 Cottle Rd30, San Jose, CA 95123",95123,37.2482301,-121.8030745
"90-15 Queens BlvdSpace FC-3, Elmhurst, NY 11373",11373,40.7348031,-73.8695671
"1031 Sanguinetti Rd.Suite B, Sonora, CA 95370",95370,37.9737776,-120.365024
"199 Chalan San AntonioSte 200, Tamuning, GU 96913",96913,13.48977,144.780868
"1690 45th Street SouthSuite 100, Fargo, ND 58103",58103,46.8550801,-96.8612035
"521 E. Shaw Avenue106, Fresno, CA 93710",93710,36.8065317,-119.7792371
"8180 Sheldon Road100, Elk Grove, CA 95758",95758,38.4376834,-121.4056048
"1035 El Monte AveC, Mountain View, CA 94040",94040,37.3911652,-122.095114
"1151 40th St100, Emeryville, CA 94608",94608,37.8307178,-122.2803097
"429 L'enfant Plaza SwSuite 415 Promenade Level, Washington, DC 20024",20024,38.8838907,-77.024017
"1620 N. School StSte 119, Honolulu, HI 96817",96817,21.3362482,-157.868416
"1101 Center Ave. Mall253, Fort Collins, CO 80523",80523,40.5726777,-105.0837293
"255 Robert C Daniel Jr PkwySte B, Augusta, GA 30909",30909,33.4875598,-82.081273
"120 Tom Hill Sr Blvd#105, Macon, GA 31210",31210,32.9006225,-83.6883796
"1300 East 86thSuite 6, Indianapolis, IN 46240",46240,39.9147313,-86.1384456
"2630 Fifth Street40, Alameda, CA 94501",94501,37.7868664,-122.280664
"2006 N Rock RoadSuite 100, Derby, KS 67037",67037,37.56833665,-97.24372596
"1255 Raritan RoadUnit 420, Clark, NJ 07066",7066,40.6317675,-74.3050858
"350 Ferst Drive NwStudent Center Commons suite 107, Atlanta, GA 30332",30332,33.773964,-84.3983559
"455 Trolley Line BlvdSpace 935, Mashantucket, CT 06338",6338,41.4763404,-71.9620183
"1580 Valley West Drive100, West Des Moines, IA 50266",50266,41.5968334,-93.7526032
"100 Cambridgeside PlaceSpace F-17, Cambridge, MA 02141",2141,42.3681263,-71.076239
"3601 North Digital DriveSuite 102, Lehi, UT 84043",84043,40.4309847,-111.8866994
"420 University Blvd.Campus Center, Indianapolis, IN 46202",46202,39.77359168,-86.17565475
"Montclair State Dining, 1 Normal Ave.1 Normal Avenue, Montclair, NJ 07043",7043,40.862737,-74.1976632
"312 Meadow Brook Rd Suite#146Suite 146, Rochester, MI 48309",48309,42.6743732,-83.2167661
"University Of Oregon1585 E. 13th Ave., Eugene, OR 97403",97403,44.04475662,-123.0737549
"5448 Dressler RdBelden Park Crossing, North Canton, OH 44720",44720,40.8601799,-81.4324889
"Grand Canyon University3300 W Camelback Rd, Phoenix, AZ 85017",85017,33.50947189,-112.1299515
"1919 W. Main19th & Main St, Bozeman, MT 59715",59715,45.680203,-111.0631631
"4865 N. Ten Mile RdSuite 100, Meridian, ID 83646",83646,43.6488271,-116.4335757
"200 Hamakua DrUnit # B4, Kailua, HI 96734",96734,21.3905498,-157.7396976
"3780 Lorna RdRiver Chase Village Ste 1300, Hoover, AL 35244",35244,33.3774715,-86.8029859
"500 Linda Mar BlvdSuite 103, Pacifica, CA 94044",94044,37.59555,-122.50382
"91-0710 Farrington HighwaySuite B200, Kapolei, HI 96707",96707,21.34917565,-158.0649903
"2800 Terminal Road Terminal A NorthGeorge Bush Airport, Houston, TX 77032",77032,29.985529,-95.34983542
"303 Carroll StreetStudent Union Building, Akron, OH 44325",44325,41.0756296,-81.5123575
"One University Plaza Ms1700University Center, Cape Girardeau, MO 63701",63701,37.3126443,-89.5310043
"501 East 10th StreetMain Campus Student Center, Greenville, NC 27858",27858,35.608679,-77.364708
"460 Oro Dam Blvd., Lot 1Oroville Dam & Feather River, Oroville, CA 95965",95965,39.49809864,-121.5707313
"211 Ne Terry LaneSuite #A, Grants Pass, OR 97526",97526,42.4370839,-123.3029173
"211 E. Highway 246SUITE 101, Buellton, CA 93427",93427,34.61146317,-120.1883074
"318 Mall BoulevardSte 700, Savannah, GA 31406",31406,32.0052192,-81.1124786
"9755 Chapman AveSuite # A, Garden Grove, CA 92843",92843,33.7888564,-117.9623507
"1100 Concord AvenueUnit 10, Concord, CA 94520",94520,37.9787366,-122.0582746
"Ka Makana Ali'i Mall91-5431 Kapolei Parkway, Ste 421, Kapolei, HI 96707",96707,21.3353909,-158.0568965
"4200 George J. Bean ParkwayTerminal E, Tampa, FL 33607",33607,27.980134,-82.538126
"University Of Kentucky Student Center, 160 Avenue Of Champions101 Main Building, Lexington, KY 40506",40506,38.036027,-84.502847
"University Of Mississippi, 1 Student Union Drive218 Student Union Drive, University, MS 38677",38677,34.365007,-89.537504
"5150 Cherry Ave.Suite 20, San Jose, CA 95118",95118,37.2588777,-121.8769808
"1601 W 17th StUnit I, Santa Ana, CA 92706",92706,33.7606138,-117.8903927
"1502 Cumberland Ave915 Volunteer Boulevard, Knoxville, TN 37996",37996,35.9606781,-83.92102814
"Student Center1400 Coleman Ave, Macon, GA 31207",31207,32.83967972,-83.62757874
"5060 E. Montclair Plaza2000, Montclair, CA 91763",91763,34.086703,-117.69511
"3883 Commercial St SeSuite 101, Salem, OR 97302",97302,44.899963,-123.039396
"21940 Pacific Hwy 99Suite D, Edmonds, WA 98026",98026,47.8015618,-122.3303538
"11939 N. Grand Parkway ESuite 100, New Caney, TX 77357",77357,30.130829,-95.235479
"1740 N. University Dr.Suite B, Plantation, FL 33322",33322,26.149332,-80.256557
"11167 Park BlvdSte A, Seminole, FL 33772",33772,27.842031,-82.794921
"26150 Novi RdSuite 400, Novi, MI 48375",48375,42.483498,-83.475696
"2440 Market St. NeSuite 905, Washington, DC 20018",20018,38.9204415,-76.9525135
"1987 W. Clinton AvenueSte 101, Fresno, CA 93705",93705,36.771712,-119.834305
"Guillot University Center1 Harrison Plaza, Florence, AL 35632",35632,34.8092,-87.678322
"201 E. Magnolia BlvdSuite 137, Burbank, CA 91501",91501,34.183112,-118.311687
"8166 Delta Shores Cir. S.,Suite 140,, Sacramento, CA 95832",95832,38.46309222,-121.4929256
"12715 Pegasus DriveStudent Union Building, Orlando, FL 32826",32826,28.606889,-81.197274
"Naval Station Mayport1596 Maine Street, Jacksonville, FL 32228",32228,30.37633,-81.41
"13465 Camino CanadaSuite 103, El Cajon, CA 92021",92021,32.82341824,-116.9031569
"188 South Rio Grande St.Suite A, Salt Lake City, UT 84101",84101,40.769278,-111.902499
"9985 Tagore PlaceSte 105, Orlando, FL 32832",32832,28.38872214,-81.24497681
"4620 S Florida AveSuite 100, Lakeland, FL 33813",33813,27.982124,-81.956926
"112 Loyola DrSte 100, Myrtle Beach, SC 29588",29588,33.64111,-78.99066
"405 K StSte 235, Sacramento, CA 95814",95814,38.58138223,-121.5018653
"3640 Rosemead Blvd.Suite #A, Rosemead, CA 91770",91770,34.083569,-118.073227
"1810 W Slauson AveSuite E, Los Angeles, CA 90047",90047,33.98915,-118.30895
"4100 Central Avenue SwSuite 101, Albuquerque, NM 87105",87105,35.08595,-106.68473
"2307 Se Adams Blvd.Silver Lake Village, Bartlesville, OK 74006",74006,36.74255,-95.95339
"300 World WaySpace 329 F&B, Los Angeles, CA 90045",90045,33.94671912,-118.4073839
"1802 Avenue ILowman Student Center, Huntsville, TX 77340",77340,30.712839,-95.550659
"1713 S Western AveSuite B, Los Angeles, CA 90019",90019,34.043089,-118.310138
"44047 Osgood RoadSuite 200, Fremont, CA 94539",94539,37.511148,-121.940858
"5108 BroadwaySuite K108, Oakland, CA 94611",94611,37.834691,-122.249879
"1260 Bridge StSuite C1, Yuba City, CA 95991",95991,39.1315,-121.633974
"5400 Donald Ross Rd.Suite 100, Palm Beach Gardens, FL 33418",33418,26.88156,-80.12259
"1388 Gemini PlaceGemini Place Towne Center, Columbus, OH 43240",43240,40.15,-82.97993
"4354 Town Center Blvd.,Suite #114, El Dorado Hills, CA 95762",95762,38.650325,-121.066813
"1236 Airport Park BlvdSuite A, Ukiah, CA 95482",95482,39.128801,-123.198513
"526 5th StPence Union Building (PUB), Cheney, WA 99004",99004,47.48900986,-117.5747681
"5115 Mae Anne Ave.Suite A, Reno, NV 89523",89523,39.53442,-119.86526
"3640a Lake Tahoe Blvd.Unit 400, South Lake Tahoe, CA 96150",96150,38.94777,-119.957788
"2323 Babcock RdSuite 107, San Antonio, TX 78229",78229,29.50560585,-98.58480243
"8201 Topanga Canyon Blvdsuite #3, Canoga Park, CA 91304",91304,34.218271,-118.607332
"8417 Evergreen WaySuite 120, Everett, WA 98208",98208,47.920594,-122.228515
"9007 Woodman AveSuite #D, Arleta, CA 91331",91331,34.233209,-118.439643
"2799 Rose Street, Suite 17Fort Meade Main Exchange, Fort George G Meade, MD 20755",20755,39.097852,-76.729008
"4021 Grand AveSuite D, Chino, CA 91710",91710,33.995857,-117.717519
"20 City Blvd W#F-6, Orange, CA 92868",92868,33.784039,-117.89403
"353 N Pass Ave.Suite A, Burbank, CA 91505",91505,34.155899,-118.346332
"12971 Beach BlvdVillage Center, Garden Grove, CA 92841",92841,33.773784,-117.992883
"3950 S Terminal RoadTerminal #E, Houston, TX 77032",77032,29.985684,-95.3359476
"570 Munras Ave.Suite 30, Monterey, CA 93940",93940,36.596559,-121.894352
"2171 Reilly RdBldg 4, Fort Bragg, NC 28307",28307,35.123664,-78.990669
"Dolley Madison BlvdSodexo Cafeteria, Mc Lean, VA 22101",22101,38.93645,-77.186535
"3460 Sandy Plains Rd NeSuite 210, Marietta, GA 30066",30066,34.034757,-84.463702
"17200 Ventura BlvdSuite 224, Encino, CA 91316",91316,34.159823,-118.507489
"1309 N. Jacksonmill Ave.N Meridian Rd & E Deer Flat Rd, Kuna, ID 83634",83634,43.499992,-116.393108
"120 E. Taylor StreetTaylor Place, Phoenix, AZ 85004",85004,33.453539,-112.073122
"8515 Park Meadows Center DriveSte. 3033, Space DH-7, Littleton, CO 80124",80124,39.5617222,-104.8787727
"1299 Galleria @tylerSPACE #FC-10, Riverside, CA 92503",92503,33.9097475,-117.4578357
"4301 W. Wisconsin Ave.SUITE 606, Appleton, WI 54915",54915,44.2692534,-88.4705139
"3000 Grapevine Mills Parkway#FC-9, Grapevine, TX 76051",76051,32.9661607,-97.0425031
"4545 La Jolla Village Dr.,#E-20, San Diego, CA 92122",92122,32.873542,-117.210122
"1451 Coral Ridge Ave.SUITE 618, Coralville, IA 52241",52241,41.6908901,-91.601858
"46-047 Kamehameha HighwaySUITE F-8, Kaneohe, HI 96744",96744,21.4213503,-157.802906
"3999 Las Vegas Blvd. SouthSUITE 1, Las Vegas, NV 89119",89119,36.0902211,-115.1720703
"2000 N. Neil St712, Champaign, IL 61820",61820,40.1423318,-88.2429304
"3355 Las Vegas Blvd. SouthSUITE 2206, Las Vegas, NV 89109",89109,36.1229174,-115.1685253
"10450 S. State St.#FC-03, Sandy, UT 84070",84070,40.5620565,-111.8950438
"1000 Universal Terrace PkwyV202, Universal City, CA 91608",91608,34.1361946,-118.3536638
"27000 Crown Valley Parkway#VC/09, Mission Viejo, CA 92691",92691,33.561488,-117.6698
"1303 E University BlvdBldg 17, #F203, Tucson, AZ 85719",85719,32.2327763,-110.9520402
"9795 W. Charleston Blvd.SUITE 103, Las Vegas, NV 89117",89117,36.1585471,-115.3111755
"1340 Northridge MallFood Court, Salinas, CA 93906",93906,36.7149843,-121.6610173
"5500 Grossmont Cntr Drive,SPACE# E-1, La Mesa, CA 91942",91942,32.77989,-117.009641
"3111 West Chandler BlvdFF-202, Chandler, AZ 85226",85226,33.3017106,-111.8985267
"3440 East Baseline RoadSPACE#101, Mesa, AZ 85204",85204,33.3796235,-111.7559876
"2855 Stevens Creek BlvdFC - 7, Santa Clara, CA 95050",95050,37.3253266,-121.9453801
"745 E. Hospitality LaneSUITE A, San Bernardino, CA 92408",92408,34.0659646,-117.2695825
"4949 North Rancho DriveSPACE# FC-1, Las Vegas, NV 89130",89130,36.2498922,-115.2441383
"3825 South Maryland PkySPACE #A, Las Vegas, NV 89119",89119,36.1194729,-115.1381069
"3200 Holcomb Bridge Rd.SPACE #650A, Norcross, GA 30092",30092,33.9528681,-84.233301
"1320 Garden Of The Gods Road#A, Colorado Springs, CO 80907",80907,38.8975559,-104.8515794
"3001 White Bear Ave207, North Saint Paul, MN 55109",55109,45.0314245,-93.0219876
"1748 W. Redstone Ctr DriveSUITE #110, Park City, UT 84098",84098,40.721205,-111.5430456
"2350 West Florida AveSUITE 120, Hemet, CA 92545",92545,33.7477175,-116.9963423
"4780 W. Tropicana Ave.SPACE# 100, Las Vegas, NV 89103",89103,36.101497,-115.2054035
"1240 N. University AveSPACE #A, Provo, UT 84604",84604,40.2510709,-111.6582065
"37134 47th Street E.SUITE D, Palmdale, CA 93552",93552,34.5566372,-118.044847
"2980 E. Capitol ExpresswaySUITE 10, San Jose, CA 95148",95148,37.3316911,-121.8109753
"293 Valley River CtrG-23, Eugene, OR 97401",97401,44.0685914,-123.1050017
"2015 N Power RdSuite 101, Mesa, AZ 85215",85215,33.45193934,-111.6829407
"7510 West Thomas Rd.SPACE #100, Phoenix, AZ 85033",85033,33.4806456,-112.2210815
"670 W. San Marcos Blvd.SPACE 105, San Marcos, CA 92069",92069,33.137411,-117.178431
"148 S. Pleasant Grove BlvdSUITE 110, Pleasant Grove, UT 84062",84062,40.3646409,-111.7530582
"9211 Clairemont Mesa Blvd.#105, San Diego, CA 92123",92123,32.831105,-117.1304534
"431 Rohnert ParkEXPRESSWAY WEST, Rohnert Park, CA 94928",94928,38.3484468,-122.7196768
"1263 E. Silverado Ranch Blvd#100, Las Vegas, NV 89123",89123,36.0127369,-115.1360167
"University Of MarylandStamp Student Union, College Park, MD 20742",20742,38.9886147,-76.939248
"2295 Otay Lakes RdSPACE #115, Chula Vista, CA 91915",91915,32.648072,-116.966059
"8700 Ne Vancouver Mall Dr.#265, Vancouver, WA 98662",98662,45.6582689,-122.5836597
"250 Cochrane PlazaSpace# 120, Morgan Hill, CA 95037",95037,37.151089,-121.6547215
"925 Blossom Hill Rd.SPACE 1621, San Jose, CA 95123",95123,37.2525161,-121.8630003
"7017 Spring Mountain RoadSPACE 104, Las Vegas, NV 89117",89117,36.1253124,-115.2462367
"5230 Windward ParkwaySPACE 109, Alpharetta, GA 30004",30004,34.0913384,-84.2760089
"4309 W. Bethany Home RdSPACE 1181, Glendale, AZ 85301",85301,33.5227015,-112.152081
"1684 Nw Chipman RoadUNIT B, Lees Summit, MO 64081",64081,38.9266504,-94.4062517
"5595 Simmons St.SUITE #1 & 2, North Las Vegas, NV 89031",89031,36.2612478,-115.1808133
"1747 E. Florence Blvd.STE 1, Casa Grande, AZ 85122",85122,32.8790918,-111.7122989
"9115 E. Baseline RdSUITE 108, Mesa, AZ 85208",85208,33.37689199,-111.6372737
"5500 Campanile Dr.EAST COMMONS #116, San Diego, CA 92182",92182,32.7721328,-117.0726647
"27602 Antonio ParkwaySUITE #G-3, Ladera Ranch, CA 92694",92694,33.563044,-117.629377
"5130 S. Fort Apache Road.SPACE 230, Las Vegas, NV 89148",89148,36.0957458,-115.2967171
"3140 N Glassford Hill RoadSuite 105, Prescott Valley, AZ 86314",86314,34.5882272,-112.3400168
"Caribbean Cinemas Boulevard 90AVE RIO HONDO, Bayamon, PR 00961",961,18.406853,-66.164817
"2624 W Kettleman Ln#160, Lodi, CA 95242",95242,38.11514944,-121.3084597
"3785 S. Las Vegas Blvd.SPACE 2500, Las Vegas, NV 89109",89109,36.1035296,-115.1723424
"425 S. Sunrise WaySTE. #10 & 11, Palm Springs, CA 92262",92262,33.8170785,-116.5300121
"7000 Eastern Ave.SUITE #C, Bell Gardens, CA 90201",90201,33.9694409,-118.1642427
"9565 E. 22nd StreetSUITE 155, Tucson, AZ 85748",85748,32.2069003,-110.7884266
"1450 Lead Hill BlvdSUITE 170, Roseville, CA 95678",95678,38.7480166,-121.2535449
"4416 E. Bonanza BlvdSuite #110, Las Vegas, NV 89110",89110,36.1739844,-115.0797206
"921 Topsy LaneSUITE #414,, Carson City, NV 89705",89705,39.1099943,-119.776721
"3170 N. Fowler Ave.SP. #1, Clovis, CA 93611",93611,36.7942787,-119.6827417
"5860 Baltimore National Pike#A, Catonsville, MD 21228",21228,39.2875255,-76.7360995
"708 Center Dr.SP. #102, San Marcos, CA 92069",92069,33.1336637,-117.1222225
"4425 E. Mckellips Rd.SUITE 101, Mesa, AZ 85215",85215,33.4494697,-111.7349063
"3140 Balfour Rd.SP# A, Brentwood, CA 94513",94513,37.924659,-121.7232682
"8495 S. Power RoadSUITE 100, Queen Creek, AZ 85142",85142,33.2647643,-111.6855872
"21000 Stevens Creek BlvdSUITE #300, Cupertino, CA 95014",95014,37.3225507,-122.0410932
"2200 Panama LaneSUITE #500, Bakersfield, CA 93307",93307,35.2962342,-119.0268234
"1120 BroadwaySUITE 140, Chula Vista, CA 91911",91911,32.609287,-117.08107
"25970 Iris Ave.STE B-8, Moreno Valley, CA 92551",92551,33.8915017,-117.2076657
"1830 Scenic Highway 124STE. #200, Snellville, GA 30078",30078,33.8773313,-84.0122035
"24387 Southland Dr.BLDG#A STE#103, Hayward, CA 94545",94545,37.6524928,-122.1043278
"25312 Madison Ave.SUITE 101, Murrieta, CA 92562",92562,33.5542057,-117.1964674
"6630 N. Durango DrSUITE #130, Las Vegas, NV 89149",89149,36.2813438,-115.2872561
"2325 S. Stemmons FwySUITE 307, Lewisville, TX 75067",75067,33.0070508,-96.9792119
"12434 N. Main St.#110, Rancho Cucamonga, CA 91739",91739,34.1122847,-117.5343357
"44421 20th Street EastSTE#G-1, Lancaster, CA 93535",93535,34.6902774,-118.095203
"1209 W. Irvington RoadSUITE# 100, Tucson, AZ 85706",85706,32.1625411,-110.990093
"100 Universal City PlazaBLDG #6528 / GATE #6, Universal City, CA 91608",91608,34.1378678,-118.3528631
"5500 Greenville Ave#200, Dallas, TX 75206",75206,32.8536332,-96.7684258
"9423 N. Fort Washington Rd.STE #101, Fresno, CA 93720",93720,36.8733855,-119.7767125
"5280 North Jackson Ave.SP. FC-3, Fresno, CA 93740",93740,36.8127197,-119.7483938
"22910 W. Vanowen St.Fallbrook Center, West Hills, CA 91307",91307,34.1936936,-118.6261792
"455 E. F.m. 1382SUITE# B, Cedar Hill, TX 75104",75104,32.5912023,-96.9355272
"972 Admiral Callaghan LaneSTE. B, Vallejo, CA 94591",94591,38.133401,-122.222453
"11521 N. Fm. 620 Rd.BLD. F, SUITE 900, Austin, TX 78726",78726,30.4534509,-97.8262951